lat,lng,city,state,date,specs,shape,duration
46.1381676,122.9381672,Longview,WA,12/31/95,"Woman, husband, son witness &quot;star&quot; that began to move, stopped, maneuvered erratically.  Moved behind trees, winked out.",N/A,N/A
48.01509799999999,122.0637425,Lake+Stevens,WA,12/31/95,RED LIGHT HOVERING LAKE STEVENS  AREA MADE NO SOUND,Fireball,15 seconds
47.6062095,122.3320708,Seattle,WA,12/30/95,"Woman's attention drawn to very faint light over Puget Sound.  Obj. grows brighter, then suddenly moves to W and disappears.",N/A,15 min.
45.6614105,110.5599556,Livingston,MT,12/30/95,Close fireball flying at approx. 2000 mph flies over Interstate 90.,Fireball,10 secs
32.715738,117.1610838,San+Diego,CA,12/29/95,"Driving North on the 805 frwy just north of the 8 frwy, saw four very bright white lights in the northern sky moving towards me, one of",Cross,5:00
43.025,78.39806,Indian+Falls,NY,12/28/95,Too close for comfort!,N/A,-5min
44.4901109,76.87334229999999,California+(Rte.+40),CA,12/27/95,"Man w/ wife witness bizarre &quot;grayish yellow light&quot; streak almost vert. from night sky, go to horizon.  (Awaiting written rept.)",N/A,5 sec.
28.5383355,81.3792365,Orlando,FL,12/27/95,I was amazed at the light bulb like glow and silence of the craft.,Circle,~30 seconds
49.895136,97.13837439999999,Winnipeg+(Canada),MB,12/27/95,Weird lights over Winnipeg,Other,5-15mins
37.1298517,80.4089389,Christiansburg,VA,12/24/95,4 adults see 2 conventional mil. aircraft &quot;pursuing&quot; a 3rd &quot;triangular craft w/ tiny red lights.&quot; 4th a/c approaches at high speed.,Triangle,1-2 min.
42.2125423,72.19118499999999,Warren,MA,12/23/95,A large beam of light in the back yard,Unknown,5 min.
61.3888889,149.4819444,Birchwood,AK,12/21/95,Highly unusual lengthy meteor observation.,Fireball,6-7 minutes
40.6749111,75.6178991,Schnecksville,PA,12/20/95,"Man &amp; daughter witness triangular obj. w/ 3 very bright white lights on the corners, 1 red light in the cntr. Obj. circled their home!",N/A,3 min.
40.4272601,86.12554709999999,Indian+Heights,IN,12/19/95,"Man, other residents, witness bizarre cluster of lights--&quot;red in middle, 3 white lights around it.&quot;  Reported to flicker.",N/A,1 hour
41.525031,88.0817251,Joliet,IL,12/19/95,2 objects seen in clear sky hovering. seen while driving E on US 30. Object 1 appeared to 'float' around object 2. Glint from top of on,Oval,10 mins
33.4941704,111.9260519,Scottsdale,AZ,12/18/95,Man (pilot) &amp; woman witness stationary bright obj. w/ strobe lights in NE sky.  Regular strobing pattern. FAA radar negative.,N/A,30 min.
32.3415342,90.3217585,Clinton,MS,12/18/95,Trinagular Object,Triangle,5 minutes
40.7127837,74.0059413,New+York+City,NY,12/18/95,"Over 28th &amp; Lexington Ave,  A Huge, hovering,  triangleish shape hovering probably over 1000 feet above crowd including 4 NYC Cops",Triangle,5 minutes
35.612661,77.3663538,Greenville,NC,12/17/95,"Man witnesses 3 orange lights in triangular pattern hover momentarily, glide across sky, pause, pivot, the fade from view.",N/A,7 sec.
42.5449992,99.8615126,Ainsworth,NE,12/15/95,"Stationary light turns off then on then remains in sky for the entire next day, but nobody notices?",Light,30 minutes
37.9000554,86.754988,Hawesville,KY,12/15/95,Strange orange light/craft hovering noiselessly overhead.,Changing,Less than 5 minutes
39.1978788,76.7625073,Elkridge,MD,12/15/95,Late December 1995 green fireball with pale green tail flew over I-95 at around 7:30. Also spotted in Annapolis around the same time.,Fireball,4 seconds
34.055103,117.7499909,Pomona,CA,12/14/95,"While delivering packages, man observes 16 round, or oval, tiny golden objs. overhead.  Objs. maneuvered, suddenly disappeared.",Round,15 min.
43.6187102,116.2146068,Boise,ID,12/14/95,FAA employee observes six objects descend out of the night sky and explode into fragments very close to ground.  Bizarre sight.,N/A,N/A
40.2920518,74.92405509999999,Upper+Makefield,PA,12/13/95,"Two young girls witnessed extremely bright white, spinning lights overhead.  Lts. turned blue, disappeared. Local power failure.",N/A,30 sec.
42.8942407,74.34457809999999,Glen,NY,12/12/95,"Young woman &amp; friend witness bizarre, round obj. w/ intensely bright blue/white lights.  Pursued obj. in car;  obsrvd. it on ground.",N/A,15 sec.
41.525031,88.0817251,Jolliet,IL,12/10/95,Man witnesses bright red streak of light travel from W to E in front of his car as he is driving N on highway.,N/A,3 sec.
29.7604267,95.3698028,Houston,TX,12/10/95,Man &amp; wife on freeway see round disc w/ red blinking lights streak by.  Obj. flipped on edge.  Wife saw door or hatch on bottom.,N/A,5 sec.
33.4483771,112.0740373,Phoenix,AZ,12/10/95,"Man, neighbor, 6 kids witnessed first three bright objs. in twilight sky, then two others streaked up to 1st 3.  Not stars or planets.",N/A,15 min.
36.451693,103.1841039,Clayton,NM,12/10/95,"Nurse &amp; daughter see 2 very bright objs. in a.m. sky, flashing red, white, blue lights in constant pattern. Both moved.  Not stars.",N/A,45 min.
44.0805434,103.2310149,Rapid+City,SD,12/10/95,It was very early morning and I was delivering papers. I heard a very large BOOM!!! and everything turned blue. I looked toward the noi,Circle,15 sec
39.78172130000001,89.6501481,Springfield,IL,12/9/95,"IL State Police/Morgan Co. Sher. relayed mult. repts. of peculiar, very brightwhite&amp;blue flashes in sky. Seen by citizens, troopers.",N/A,9 hrs.
28.0341847,82.6650992,Oldsmar,FL,12/7/95,"Six witnessed very bright obj. streak from N to S in E sky.  1/4 size of full moon.  Blue head,  short orange/blue tail. Silent.",Light,4 sec.
47.8209301,122.3151313,Lynnwood,WA,12/6/95,"Five youth watching TV see a &quot;black obj., w/ no lights&quot; streak by apt. window.  Later, saw beam of light over pond.  Called 911.",N/A,2 sec.
47.76095,122.2055883,Bothell,WA,12/6/95,"Father &amp; daughter driving in car witness &quot;beautiful electric blue&quot; triang. shaped obj. in evening sky.  Flipped on side, maneuvered.",N/A,4 min.
62.14506669999999,75.5683447,Salluit+(Canada),QC,12/5/95,Blue fireball seen by three children in arctic,Fireball,15-30 seconds
47.4956579,121.7867775,North+Bend,WA,12/5/95,Newspaper reporter calls seeking information regarding sighting of peculiar object over N. Bend on prior night.,N/A,N/A
47.4956579,121.7867775,North+Bend,WA,12/5/95,"Two adults, 7 children, witness &quot;an orangey light, like an 1/8th moon,&quot; hover,  move south, then hover again in clouds. No sound.",Chevron,4 min.
42.8679836,76.985557,Geneva,NY,12/4/95,"Woman rpts a very bright stationary light in SE sky &quot;below Orion's Belt&quot; that looks &quot;like a horseshoe.&quot; Alternating red, blue, white.",N/A,25 min
47.6062095,122.3320708,Seattle,WA,12/4/95,"Man reports a brief power failure, looks outside and witnesses a luminous obj., size of star, streak from W to E in southern sky.",Light,2 sec.
32.2686981,107.7586404,Deming,NM,12/4/95,Driving I10 west of Las Cruces NM a random shape object visable for more than 60 mins seem to follow my U-Hall truck.,Changing,40 -60 Min
47.072793,122.7127802,Nisqually+Delta,WA,12/3/95,"Woman &amp; husband, while driving S on Hwy. I-5, witness obj. beside road light up huge area of sky for 3 sec.,  again 10 min. later.",N/A,15 sec.
45.4313662,122.3734641,Boring,OR,12/3/95,"Woman, son, &amp; friend witness multiple, rapid red flashes in clouds in distance, then overhead.  No sound.  Other repts. to 911.",N/A,15 min.
33.3061605,111.8412502,Chandler,AZ,12/3/95,"Woman sees bright light in daytime sky. Was &quot;oriented vert,&quot; and was moving E to W, then to SW.  Moved fast. Saw 2nd light.",N/A,12
38.4021359,122.8238806,Sebastopal,CA,12/2/95,"Man in car witnesses 2 peculiar lights, which suddenly became 3 lights, then began to move slowly.  Heard &quot;engine sound.&quot;",N/A,N/A
41.6303103,87.85394250000002,Orland+Park,IL,12/1/95,"Man repts. seeing 4-5 very bright, multi-colored lights in southern night sky.  Appear to move, but very little. (Twinkling stars?)",N/A,18 min.
42.9978049,84.1766358,Owosso,MI,12/1/95,"Pilot, former FAA controller, sees 5 &quot;pinkish&quot; small lights in clear area of sky, arranged in precise staggered-V formation, streak.",Light,5 sec.
41.3098746,122.3105666,Mount+Shasta,CA,12/1/95,"Comm. pilot repts. witnessing multiple peculiar flashes of light from N of Mt. Shasta to Eugene, OR.  Bursts moved N w/ aircraft.",N/A,N/A
43.0116784,88.2314813,Waukesha,WI,12/1/95,"Woman in car witnesses &quot;shooting star&quot; descend vertically, suddenly stop, suddenly shoot of horizontally.  Multiple lights on it.",N/A,2 sec.
40.1645785,74.2082671,Howell,NJ,11/30/95,"Man saw 2 lights, apparently coming directly toward him, then a 3rd appeared, forming a triangular shape.  Hovered nearby, faded.",N/A,5 min.
38.3640795,122.5241487,Glen+Ellen,CA,11/29/95,Woman calls to rept. that her son &amp; husband had seen a huge obj. w/ 3 red flashing lights.  &quot;Shape of sub on Seaquest TV program.&quot;,N/A,15 sec.
40.5865396,122.3916754,Redding,CA,11/29/95,"Woman witnesses bright &quot;star&quot; in NW sky which suddenly splits into two lights.  1 descends to hor., other rises vert., disappears.",N/A,5 min.
34.7513712,118.2522977,Antelope+Valley,CA,11/29/95,Man on Hwy. 14 sees two bright objs. w/ trails behind them flying slowly along a parallel course.  Larger becomes black dot.,Light,10 sec.
47.6101497,122.2015159,Bellevue,WA,11/28/95,Software engin. witnesses &quot;stripe&quot; of green light in N/S orientation across sky above scudding clouds. (Adv. laser light rptd. 28NO.),N/A,15 sec.
33.8302961,116.5452921,Palm+Springs,CA,11/28/95,"FAA employee calls regarding a shimmering, very colorful, stationary light in the eastern sky.  (Twinkling star??)",N/A,38 min.
40.2502582,103.7999509,Fort+Morgan,CO,11/27/95,"Woman reports a very bright, colorful, stationary object &quot;below the Belt of Orion.&quot;  (Possible flickering star??)",N/A,2 hrs.
40.2247075,105.271378,Lyons,CO,11/27/95,Hole (50 feet by 30 feet) opens up on hill side.  Light streams from it along with motor noise.  Closes again and leaves no sign of exi,Other,20 minutes
35.7344538,81.3444573,Hickory,NC,11/27/95,Two bluish white orbs one bigger then other then at end did a u turn into space almost like something in a movie with no noise.,Sphere,7-10 minutes
38.67851570000001,121.7732971,Woodland,CA,11/25/95,"Two young boys witness 2 bright, white oval objs. streak to E, then to NE below the clouds.  Objs. were very bright.",N/A,2 sec.
47.0341244,123.7891291,Wishkah+River,WA,11/25/95,"Experienced MUFON investigator/law officer relays rpt that woman, son witnessed bizarre bright light, green beam near home.",N/A,N/A
42.8672048,84.9100792,Portland,MI,11/24/95,large saucer object with red and green light over highway that sped away at unbelievable speeds.,Disk,20-25 seconds
40.5153772,105.0755408,Loveland/Fort+Collins,CO,11/23/95,Triangle ship following a ball of light.,Triangle,30 minutes
39.1434406,77.2013705,Gaithersberg,MD,11/23/95,"November, 1995 sighting of a red &quot;V&quot; formation followed by a wavy string of greenish lights.",Formation,15sec-1min
40.1742757,75.10683879999999,Haltbro,PA,11/22/95,Woman reported witnessing a cluster of &quot;gold cigars.&quot; Passed overhead very fast.  Objs. were thicker in center.  Distinctly gold.,N/A,1 minute
38.67851570000001,121.7732971,Woodland,CA,11/22/95,Mother reported her son had become very agitated after witnessing a strange craft outside his bedroom.  Disc w/ &quot;fluttering&quot; sound.,N/A,N/A
47.28916,101.0290346,Washburn,ND,11/21/95,A bluish triangular object moving in a clockwise direction.,Triangle,20 seconds
35.1495343,90.0489801,Memphis,TN,11/21/95,"Woman &amp; neighbor witness bizarre obj. pass overhead.  Obj. had long wings, &quot;like a glider,&quot; w/ 8-9 lights on each. It folded wings!!",N/A,2 min.
39.0284685,104.4841284,Peyton,CO,11/21/95,"Young man&amp;mother; 2 intensely bright white lights, side by side, moving erratically across sky.  Green flashes, sonic",N/A,5 min.
43.237797,120.6708853,Christmas+Valley,OR,11/20/95,"Three sitings, all in Oregon, at night, no visible moon",Light,5 minutes
47.5650067,122.6269768,Bremerton,WA,11/20/95,"Woman reports witnessing peculiar lights in W sky, which suddenly disappeared from sight.  Lights &quot;looked round.&quot;",N/A,2 sec.
47.3223221,122.3126222,Federal+Way,WA,11/20/95,"Woman, friend,  observe very large obj. in sky w/. bizarre lights.  Stationary at first, then began to drift to W.  No sound.",N/A,1 minute
33.9204354,80.3414693,Sumter,SC,11/20/95,"Woman repts. her husband had just witnessed two bizarre ships, &quot;a round one, and a long torpedo-shaped obj.,&quot; pass overhead.",N/A,20 sec.
36.7417235,88.6367154,Mayfield,KY,11/20/95,"family followed by darting, triangular objects.",Triangle,10 min.
27.950575,82.4571776,Tampa,FL,11/20/95,"Nursery owner repts. peculiar ring of flattened grass on his property.  Grass had been killed earlier w/ spray, but was matted down.",N/A,N/A
44.6713733,103.852148,Belle+Fourche,SD,11/20/95,MUFON State Dir. relays rpt:  Postal empl. heading W on highway witnesses very large white w/ green tail streak vert. to horizon.,N/A,2 sec.
30.627977,96.3344068,College+Station,TX,11/20/95,One third larger and twice as bright as venus. The object did not twinkle as one would expect if it were a star.,Light,15 seconds
37.7030646,85.8649408,Elizabethtown,KY,11/20/95,The craft was about 200 feet in the air above the field and an adjacent house.,Other,2 minutes
36.8529263,75.97798499999999,Virginia+Beach,VA,11/19/95,"Mother heard high-pitch whine pass over house.  Daughter witnessed large circular craft w/ multiple circular whitish, yellow lights.",N/A,25 sec.
36.8529263,75.97798499999999,Virginia+Beach,VA,11/19/95,"A circular object with lights on the bottom, flying very low to the house, possibly about six stories high, there was a humming noise.",Circle,20-30 Seconds
38.8813958,94.81912849999999,Olathe,KS,11/19/95,"Family repts. a stationary obj. in night sky that is flashing red, blue, silver.  Appears to rotate.  (Not inconsistent w/ star.)",N/A,1 hour
39.4652724,95.7363723,Holton,KS,11/19/95,"Youth w/ friend pursue on Hwy. 16 &quot;triangular thing in sky, w/ yellow, blue, and green&quot; lights. Obj. turned abruptly, flew north.",N/A,15 min.
40.5865396,122.3916754,Redding,CA,11/19/95,Father w/ children witness orange ball of light bob above trees.  Suddenly witness streak of white light w/ green tail&quot; finger wide.,N/A,10 min.
38.7296252,120.798546,Placerville,CA,11/19/95,MUFON investigator relays rept. of multiple sightings of bizarre &quot;meteor.&quot;  Multiple newspaper articles.,N/A,3 sec.
40.5865396,122.3916754,Redding,CA,11/19/95,"Woman in car facing E saw very bright, bizarre obj. streak horizontally from L to R.  Head was blue, tail was yellow, orange, red.",N/A,3 sec.
39.1637984,119.7674034,Carson+City,NV,11/19/95,"Woman calls after dramatic sighting of &quot;a red streak of light, w/ blue in middle&quot; moving SE to NW.  Width &quot;as thick as my thumb!&quot;",N/A,2 sec.
41.0616912,91.63738599999999,Trenton,IA,11/19/95,"Young man hunting sees two peculiar bright lights hovering in sky, &quot;like planets.&quot;  Suddenly they flashed, changed color, moved.",N/A,3 min.
33.4483771,112.0740373,Phoenix,AZ,11/19/95,"Woman, grandson, and several other witnesses rept. approx. 10 shiny objs. maneuvering, reflecting sunlight overhead.  Streaked off.",N/A,5 min.
42.279286,71.4161565,Framingham,MA,11/19/95,"Young woman repts. seeing w/ friends a large, round, bright obj. overhead.  Filled car w/ green light.  &quot;Pains in head.&quot;",N/A,50 sec.
34.9159099,85.1091173,Ringgold,GA,11/18/95,"On Saturday evening just after dark on November 18, 1995 an arrowhead-shaped ufo was spotted to the east approx. 100 yrds. from Davis R",Delta,15 min.
35.0524699,118.1739645,Mojave,CA,11/18/95,"Woman repts. 2 objs., &quot;big and small,&quot; hovering in clear sky to SW.  Lights appear to blink or strobe.  Other witnesses.",N/A,35 min.
47.6062095,122.3320708,Seattle,WA,11/18/95,Nat. UFO Rpt. Ctr. phones AP &amp; UPI wire services.  They have no info re 17NO95 sightings; express no desire to inspect data.,N/A,N/A
43.2341813,86.24839209999999,Muskegon,MI,11/18/95,"Woman repts. daughter encountered intensely bright red, triangular obj. sitting on side of road.  Obj. rose, disappeared suddenly.",N/A,12 min
28.5383355,81.3792365,Orlando,FL,11/18/95,Woman repts. bizarre &quot;half circle&quot; obj. in sky to SE.  Projects ray downward!  Something appeared to &quot;fall&quot; from the main object.,N/A,N/A
47.6062095,122.3320708,Seattle,WA,11/17/95,"Young woman in Seattle Univ. dormitory sees bizarre, pronounced red, pink, blue intense, multiple flashes of light in clouds to east.",N/A,20 min.
47.6062095,122.3320708,Seattle,WA,11/17/95,"2nd Seattle Univ. student calls to report remarkable &quot;pink and &quot; blue flashing lights in, or above the clouds.",N/A,38 min.
35.3512588,77.96525729999999,Seymour-Johnson+AFB,NC,11/17/95,"Duty sergeant rpts multiple calls from citizens regarding 1 or more (?) objects hovering, maneuvering near USAF base. Radar neg.",N/A,N/A
47.6062095,122.3320708,Seattle,WA,11/17/95,Young woman repts. witnessing multiple &quot;flashes of red and blue light&quot; in and above the clouds.  Were to the NE of Capitol Hill.,N/A,3 hrs.
48.1987118,122.1251418,Arlington,WA,11/17/95,MUFON member relays multiple reports about people who witnessed &quot;pink and blue flashes&quot; same night as sightings over Seattle.,N/A,N/A
47.6062095,122.3320708,Seattle,WA,11/17/95,Man repts. witnessing peculiar red and blue flashes over Seattle.  One flash filled 180 deg. of sky w/ red light.  Observed an orb.,N/A,3 hrs.
43.4925843,70.45338439999999,Biddeford,ME,11/17/95,"Man leaves work at hospital, encounters large &quot;plate-shaped obj. w/ 3 multi-color rings around it.&quot;  Obj crossed road, rose vert.",N/A,2 min.
41.7014912,71.1550451,Fall+River,MA,11/17/95,Young woman saw extremely bright white light with green tail streak toward the south.  No sound.,N/A,10 sec.
43.16174830000001,70.6482581,York,ME,11/17/95,"Father, son, &amp; many bystanders witness incredible &quot;starlike&quot; obj. w/ &quot;white aura, long green tail,&quot; STREAK FAST from NE to SW.",N/A,5 sec.
43.8006208,70.18672269999999,Yarmouth,ME,11/17/95,"Young man reports huge, bright white light, &quot;w/ green wake,&quot; pass overhead very fast.  Other witnesses stopped cars.",N/A,5 sec.
40.7069866,75.30623260000002,Lower+Nazareth,PA,11/17/95,"Woman witnesses huge, triangular-shaped ship, covered w/ bizarre lights, &quot;like traffic lights.&quot;  Very dramatic sighting.",N/A,3 min.
40.7066174,74.5493284,Basking+Ridge,NJ,11/17/95,"Young man, while driving N, witnesses dramatic white fireball to east streak N to S.  Sees similar red streak N to S in W sky!",N/A,4 sec.
42.7438895,73.81100339999999,FAA+(Sector+18),NY,11/17/95,"FAA Boston Cntr. relays 2 rpts:  2 comm. jetliner crews rept very bright light, green tail, pass by them on N side very fast. Close.",N/A,5 sec.
44.148376,72.4030806,Orange,VT,11/17/95,"Woman witnesses multiple red, radiant objs. hovering over her mountaintop farm, then immense white flash.  Objs. streaked S (?).",N/A,15 minutes
40.80732099999999,72.8212131,Moriches+(Long+Island),NY,11/17/95,NY Radar Air Traffic  Controllers see UFO over Long Island.,Other,1-2 mins
40.6628795,73.55151599999999,Merrick+(Long+Island),NY,11/17/95,"Reading text of Lufthansa Pilots sighting that night,  jogged my memory, of my own sighting that night.",Chevron,30 sec.
41.8540094,72.82791499999999,Simsbury,CT,11/17/95,"Woman &amp; friend (pilot) see very large blazing yellow/orange &quot;comet&quot; streak horiz. E to W, explode. Changed course, dropped vert.!",N/A,2 sec.
47.2528768,122.4442906,Tacoma,WA,11/17/95,"Young man repts. he returned home from store, neighborhood boys excited about strange obj. that had just passed overhead.",N/A,N/A
38.4087993,121.3716178,Elk+Grove,CA,11/16/95,"Woman outside smoking sees bizarre craft &quot;w/ red lights&quot; pass silently overhead.  When she peered around house, was gone.",N/A,40 sec.
39.6001132,75.94133269999999,North+East,MD,11/15/95,UFO hovers right above a rural house and field,Oval,10 minutes
40.0149856,105.2705456,Boulder,CO,11/15/95,I was sitting in my back yard talking on the phone.When I saw 1 green dot fly south Followed by 2 more green dots flying parallel to ea,Formation,10 sec.
34.0200114,117.9495083,La+Puente,CA,11/15/95,Four large luminous disks arranged like the engines of a 4-engine plane flew north to south at low altitude and silently.,Other,15 seconds
43.0389025,87.9064736,Milwaukee,WI,11/15/95,Fireball in Milwaukee,Fireball,15 seconds?
36.1347943,82.82097399999999,Green+Co.,TN,11/15/95,FAA empl. relays facts of written rept.  Man and woman encounter 3 bizarre ships that hovered over them on Hwy. 70.,N/A,2 hrs.
31.805769,81.4306642,Midway,GA,11/14/95,"Mother notices &quot;aircraft&quot; over Midway River, suddenly &quot;engine noise&quot; seem to slow.  She &amp; kids see 2 &quot;mushroom shaped&quot; craft.",N/A,2 min.
38.1749178,122.2608044,American+Canyon,CA,11/14/95,"Woman and daughter witness w/ binoculars 2 strange lights in sky.  Flashing white, red, green.  (Not inconsistent w/ twinkling star.)",N/A,30 min.
45.42067489999999,122.6706498,Lake+Oswego,OR,11/13/95,Woman repts. three peculiar green beams of light overhead.  (MUFON investigator reptd. was probably laser-based adv. light.),N/A,12 min.
33.5206608,86.80248999999999,Birmingham,AL,11/13/95,"Man standing outside sees what looks like &quot;shooting star.&quot; Obj. split into 3 lights, &quot;like isosceles triangle,&quot; shot across sky to SE",N/A,2 sec.
41.1616108,112.0263313,Roy,UT,11/12/95,At 11:20 PM as I saw a triange shaped object with 7 red lights moving slowly to the south.,Triangle,10 Minutes
36.1699412,115.1398296,Las+Vegas,NV,11/12/95,"Woman repts. two stationary, &quot;colorful,&quot; lights to W &amp; NW of her position.  (Description not inconsistent w/ twinkling stars.)",N/A,45 min.
30.4094159,88.9252664,Keesler+AFB,MS,11/12/95,"Man rpts. bizarre obj moving in night sky near &quot;Keesler&quot; (AFB?).  Other objs near.  All w/ strange red &amp; blue lights, maneuvered.",N/A,1 hour
47.6768927,122.2059833,Kirkland,WA,11/11/95,"Woman on cruise boat sees large obj. w/ 8-10 strange red lights, passes overhead N to S, dips, rises vert. out of sight! No sound.",N/A,10 sec.
34.5958201,120.1376481,Solvang,CA,11/11/95,"Two young women driving to party encounter a large cylindrical-shaped obj. &quot;w/ a lot of lights on it.&quot; Drifted slowly, streaked.",N/A,10 min.
47.377073,120.1439523,Rock+Island,WA,11/11/95,"Man on Hwy 28 sees extremely bright obj. &quot;shoot across windshield,&quot; blow up into many fragments when it entered cloud of fog.",Light,20 sec.
32.63506780000001,111.40067,Pichacho+Peak,AZ,11/11/95,"Driving from Phoenix to Tucson Arizona,about half way (Marana Arizona), Nov. 11, 1995 I looked toward Kitt Peak (the famous observatory",Circle,15 min
44.0520691,123.0867536,Eugene,OR,11/11/95,"Three adults hear a strange noise, see a strange &quot;star&quot; to W.  Obj. does gyrations, then streaks N.  10 min. later, they see 3 more.",N/A,10 min.
25.9017472,97.4974838,Brownsville,TX,11/10/95,"A late night experience of a rotating ball with changing colors, and a aura",Circle,10 minutes
47.30732279999999,122.2284532,Auburn,WA,11/10/95,"Man experienced 15 sec. power outage in Enumclaw, then witnesses major blue, then green flash south of Auburn. 50 deg. of sky.",N/A,10 sec.
41.127858,77.0205229,Eilmsport,PA,11/10/95,PA Emer. Man. Agency relays report from citizen regarding &quot;UFO sighting.&quot;  (Established 19NO95 they were advertising lights.),N/A,N/A
47.6590897,92.1979466,Embarrass,MN,11/10/95,craft sighted hovering over trees in rural minnesota,Disk,1-3 mins
45.48706199999999,122.8037102,Beaverton,OR,11/10/95,Family returns from restaurant and notice &quot;emerald green beam&quot; of light going horizontally over their home. Beam ended abruptly.,N/A,40 min.
40.6639916,74.2107006,Elizabeth,NJ,11/9/95,While driving on Route 1&amp;9 in Elizabeth Near Newark Airport I was looking at an airplane that was taking off on an upward incline. At t,Oval,90 seconds ?
45.4831849,118.8299848,Pilot+Rock,OR,11/8/95,Two brothers witness cluster of 4 bizarre blue-white lights ahead on highway.  Strange effects. Drove 98.7 miles on 2 gal. gas.,Light,1 hour
41.98111,123.96056,Rockland,CA,11/7/95,"Woman repts. witnessing obj. in sky that &quot;looks like star.&quot;  Reptd. to move slightly, fade. She drove to open field to view. (Star?)",N/A,N/A
44.53651190000001,122.9070339,Lebanon,OR,11/6/95,"Mother (39 yrs.) &amp; son witness bizarre, very brightly lighted disc hovering over rural road.  Moved extraordinarily suddenly, fast!",N/A,5 min.
27.950575,82.4571776,Tampa,FL,11/6/95,Woman &amp; husband witness &quot;extremely brilliant white light w/ pink &amp; blue&quot; in the E sky.  Appeared to eject obj. Changed shape.,N/A,30 sec.
29.9012437,81.31243409999999,St.+Augustine,FL,11/6/95,"Anon. rpt. of bizarre obj. that &quot;looked like the Shuttle&quot; moving S to N across sky, 20 deg. in 20 sec.. Visible exhaust plume. Bright.",N/A,20 sec.
38.490327,89.793154,Mascoutah,IL,11/5/95,"Nurse returning home sees &quot;bright white light shoot over her truck, straight ahead (of her).&quot;  Upset.  Possible phy. effect on car.",N/A,7 sec.
40.1164204,88.2433829,Champaign,IL,11/5/95,Woman &amp; 9-yr. daughter heard &quot;sirens&quot; then noticed obj. sitting above nearby trees.  Looked &quot;like Xmas lights.&quot;  Followed them.,N/A,5 min.
40.19475389999999,92.5832496,Kirksville,MO,11/5/95,3 UFO'S SPOTTED SHARING ENERGY PARTICALS IN MISSOURRI SKY,Sphere,20 MIN
38.0405837,84.5037164,Lexington,KY,11/5/95,Young man in state of excitement calls to report a &quot;big ball of light&quot; had circled him as he walked along RR tracks.  Missing time(?).,N/A,3 hrs.
44.076698,121.014702,Alfalfa,OR,11/4/95,"Young man (MUFON trainee) &amp; girlfriend witness a &quot;straight, triangular beam of light&quot; projected down (?) from cloudy sky.",N/A,10 sec.
47.8408323,120.0168079,Chelan,WA,11/4/95,"Software engin. repts. very bright, peculiar orange &quot;fireballs&quot; to the SSE of his home.  Similar sighting in same area 28OC95.",N/A,N/A
47.5666668,122.3867537,West+Seattle,WA,11/3/95,"Woman repts. pecular small obj. in morning sky, &quot;like a bright star.&quot; Then it began to move, rose up, drifted south. Red beacon vis.",N/A,N/A
34.0739016,117.3136547,Colton,CA,11/3/95,Woman observes peculiar &quot;red star&quot; in N sky.  Viewed it w/ coworkers.  Obj. finally moved off and disappeared from sight.,N/A,10 min.
37.5202145,122.2758008,Belmont,CA,11/3/95,"Woman witnesses a &quot;round, fluorescent gree ball of fire&quot; descend out of night sky &amp; disappear behind hills to S.  Long, fiery tail.",N/A,2 sec.
38.7131073,90.42984009999999,Maryland+Hts.,MO,11/3/95,"Woman notices &quot;tiny little shiny obj.&quot; in daytime sky.  It suddenly drops to horizon in approx. 10-15 sec., disappears from sight.",N/A,3 min.
30.6035255,87.9036047,Daphne,AL,11/1/95,"Triangular shaped object with 3 lights, passes over house at low altitude and made no sound.",Triangle,30 seconds
33.0198431,96.6988856,Plano,TX,11/1/95,Blue Sphere of Light - Turns into Upside Down Pyramid of Light,Sphere,2 seconds
34.0922335,117.435048,Fontana,CA,11/1/95,Saw a U.F.O. dropping some glowing stuff,Other,around 15 min
48.50389,122.23611,Sedro+Woolley,WA,11/1/95,"Husband &amp; wife see peculiar colorful, stationary obj. to E, over Alger Mtn..  (Possible star??)",N/A,30 min.
40.9867609,75.1946248,Stroudsburg,PA,11/1/95,On November 21st of the year 1995 around 8:00 oclock at night strange spherical violet bluish balls of light where landing over a mount,Sphere,2 minutes
33.4212497,117.6018082,San+Juan/San+Clemente,CA,11/1/95,"Orange balls of light near Camp Pendleton - fire dept says it's planes dropping night illuminaiton balls, drills, this was around 1995",Sphere,30 minutes
33.6469661,117.689218,Lake+Forest,CA,11/1/95,Two bright headlights hovered noiselessly. Eyes adjusted and saw a Stealth shape head on. Finally able to see orange whisp of light whe,Unknown,1 min
47.8847447,120.1567011,Manson,WA,11/1/95,Man repts. 2 &quot;guys in scuba divers suits w/ wrap-around glasses&quot; in his apt..  &quot;Photographed&quot; man w/ &quot;flashlights.&quot;  Through wall!,N/A,N/A
33.8302961,116.5452921,Palm+Springs,CA,11/1/95,Black triangle-shaped craft hovered at low altitude next to freeway for at least 30 minutes on Halloween night 1995.,Triangle,30 minutes
42.1619739,71.042551,Randolph,MA,11/1/95,while working the late shift at agas station on rte 28 in Randolph I saw alarge white light in the sky to the east.  It started up high,Circle,30secs
42.1619739,71.042551,Randolph,MA,11/1/95,Bright light appears over power lines,Light,2 minutes
39.0429506,122.9158293,Lakeport+(near),CA,11/1/95,Two brothers hunting 6 miles from the main road. Parked on a pullout near the top of the ridgetop. Saw red-green halo light moving acro,Light,5 hours
47.76095,122.2055883,Bothell,WA,11/1/95,"Exp. UFO investigator, MUFON member, witnesses very bright bluish/white flash of light that lit living room.  Descended rapidly.",N/A,2 sec.
41.7620842,72.7420151,West+Hartford,CT,10/31/95,"Passenger in car noticed &quot;haze&quot; that appeared to be divided into 3 &quot;sections&quot; w/ bright light in center.  Changed shape, became disc.",N/A,20 sec.
33.6752492,84.0378894,Rockdale+County,GA,10/31/95,I think I was purposely visited becuase of events in my life . My arabic grandmother had just passed.,Circle,5 minutes
47.2528768,122.4442906,Tacoma,WA,10/31/95,"Man sitting in hot tub sees &quot;satellite&quot; in E sky.  Obj. suddenly accelerated dramatically, made zigzag turns, departed very fast.",N/A,4 sec.
47.86788,121.7403963,Startup,WA,10/31/95,"Woman witnessed apparently round obj. w/ 7 lights on rim, alternating red &amp; white.  Lights gave impression they were &quot;circling.&quot;",N/A,4 min.
47.2528768,122.4442906,Tacoma,WA,10/31/95,"Woman sees extremely bright, &quot;fuschia-pink&quot; ball of light settle into neighbor's field!  Light reflected off truck; dog stared at it.",Light,2 min.
47.6062095,122.3320708,Seattle,WA,10/30/95,"Woman rpts peculiar bright obj. in NW sky, 45 deg. above horizon.  (Reported 02NO95 obj. was not present on subsequent nights.)",N/A,30 min.
48.752167,122.479994,unknown,WA,10/30/95,"TRIANGLE, ONE LIGHT ON EACH CORNER, VERY LITTLE NOISE, AND TWO SEPERATE WHITE LIGHT SPHERES.",Triangle,5 minutes
35.9745743,83.62708959999999,Kodak,TN,10/29/95,"Man &amp; wife witness very bizarre obj. moving erratically in sky.  &quot;It looked like an airplane, but it wasn't (one.)&quot;  1 blinking light.",N/A,1 minute
38.5925532,90.5870686,Ellisville,MO,10/29/95,"Woman repts. &quot;4 lights, then 6 lights, look like bright street lights in the sky.&quot;  Criss-crossing, dancing motion. (Adv. lights?)",N/A,30 min.
38.7166871,121.3644216,Antelope,CA,10/28/95,broken trangular patterned lights,Unknown,few minutes
47.30732279999999,122.2284532,Auburn,WA,10/28/95,"Woman repts. a &quot;white, round meteor,&quot; viewed from Rte. 64.  Viewed to north approx. 25 deg. above horizon.",N/A,2 sec.
38.8994054,120.9147455,Greenwood,CA,10/28/95,"Man &amp; wife see very bright obj do &quot;loop&quot; then see 3 more objs.  Got other witnesses, saw 11 objs! Seemed to &quot;shoot at each other.&quot;",N/A,3 hrs.
44.72178359999999,123.920113,Siletz,OR,10/27/95,"Woman &amp; 3 witnesses rpt stat. obj flashing white, green, red lights.  Zigzags dramatically. (Reptd. 02NO95 obj. not visible in sky.)",N/A,15 min.
55.7794311,132.8179953,Prince+of+Wales+Island,AK,10/27/95,"Man rpts very large, circular obj passing slowly across N sky from W to E to horizon.  Dia. of full moon!  Burning material ejected.",N/A,2 min.
47.1853785,122.2928974,Puyallup,WA,10/25/95,"Blue and yellow lights hitting the window, but not shining inside.",Light,3 minutes
40.5294058,75.3936935,Center+Valley,PA,10/25/95,"Grey Triangular object about 25-30' wide with three very bright white lights, one in center and one on each wing tip, moving at no more",Triangle,5-10 MIN.
36.8524545,121.4016021,Hollister,CA,10/24/95,Man calls to relay sighting of &quot;very large white light in sky.&quot;  Obj. developed &quot;tail like comet.&quot;  Other observers.  Called police.,N/A,1 min.
36.3134397,82.3534727,Johnson+City,TN,10/23/95,"Young couple witness 2 &quot;huge&quot; objects pass overhead.  Had no wings, 20 lights (est.) per side.  Very visible; &quot;hummed.&quot;  Good rpt.",N/A,15 min.
38.8965654,121.0768901,Auburn,CA,10/22/95,"Young girl w/ friends witness bizarre &quot;triangle w/ 3 red, dim lights,&quot; streak across sky.  Strobed bright light.  Scared, nauseous.",N/A,6 sec.
33.4017766,86.954437,Bessemer,AL,10/22/95,"Man, wife, 2 children,  driving down long hill, see bizarre cluster of lights, &quot;like Christmas tree in the sky.&quot;  Multiple witnesses.",N/A,15 min.
43.100903,75.232664,Utica,NY,10/21/95,My private plane was followed by a ufo for over 50 miles.,Disk,35 minutes
43.16103,77.6109219,Rochester,NY,10/21/95,UFO followed me,Disk,10 minutes
36.1018163,78.4580543,Franklinton,NC,10/21/95,"I saw a four foot wide, moving, circular patch of road which was devoid of rain in a driving storm.",Circle,10 seconds
34.2694474,118.781482,Simi+Valley,CA,10/20/95,"5 MILE High Laser Beam,  guarded by AMSEC/SAIC,  International Security Corp.",Light,MANY HOURS
34.8781479,83.4009933,Clayton,GA,10/20/95,bright oval white light/moves at an incrediable speed zigzaging between trees(forest like)/followed us about 15 to 20 minutes.,Oval,15 to 20 minutes
42.3265152,122.8755949,Medford,OR,10/20/95,We saw a bright light in the sky that lit up the entire mountain side as bright as daylight as it passed overhead.,Fireball,25 seconds
45.48706199999999,122.8037102,Beaverton,OR,10/19/95,"Man's dog suddenly starts acting very bizarrely, threatens to bite him.  He takes dog outside, witnesses bizarre light hover, leave.",N/A,45 sec.
45.6318397,122.6716063,Vancouver,WA,10/19/95,"Fed. empl. (pilot &amp; a/c mech.) w/ 2 co-workers witness 2 metallic discs approach from E sky below contrails, turn, streak. Exclnt.",N/A,3 min.
47.5928725,122.6684759,Rocky+Point,WA,10/19/95,"Woman repts. being awakened by strange &quot;whine, like a jet.&quot;  Went outside, saw bizarre delta-shaped craft. Obj. changed shape!",N/A,1 minute
38.8338816,104.8213634,Colorado+Springs,CO,10/19/95,"Multiple, star-shaped, dim yellow lights in straight line",Other,10 seconds
42.2548238,84.20395429999999,Grass+Lake,MI,10/18/95,Man &amp; wife witness &quot;large white luminous ball w/ bright blue tail&quot; descend from W to E in N sky.  Moved very rapidly.  Good rpt.,N/A,1 minute
41.7557501,124.2025913,Crescent+City,CA,10/17/95,"Man witnesses strange white, oval-shaped light being pursued by 2 fast aircraft.  Very high, fast.  Obj dramatically outpaced a/c.",N/A,5 min.
25.7616798,80.1917902,Miami,FL,10/17/95,FAA controller relays  UFO sighting  reported by &quot;crew&quot; of aircraft 15 miles SE of Lakeland FL. Vortac. Did not show on a/c radar.,N/A,N/A
30.2400058,81.3852595,Ponte+Vedra+Beach,FL,10/17/95,noticed light out of place on way home approached the object was elliptical in shape almost lika football i was apprxmtly 15 yards from,Other,2-3 minutes
28.5552719,82.3878709,Brooksville,FL,10/17/95,flying fireball streaked past my grandmothers house in the woods 20 feet off the ground moving near 65 mph.,Fireball,5 seconds
21.4954957,158.0626555,Scofield+Barracks,HI,10/16/95,"Soldier reports seeing a &quot;stationary obj. to S, w/ red &amp; blue flashing lights.&quot;  Still clearly visible even after sun has risen.",N/A,30 min.
34.2506356,118.61481,Chatsworth,CA,10/15/95,Moon size fireball flies over the San Fernando Valley Oct. 1995,Fireball,5 sec
41.9484307,71.9739625,Woodstock,CT,10/15/95,"Young couple witness large glowing craft streak across the night sky, as if it were &quot;exiting&quot; the Earth. Craft was followed by a trail ",N/A,5 seconds
38.9071923,77.0368707,"Washington,+D.C.",DC,10/15/95,Million Man March had visitors?,Light,10 Minutes
37.9715592,87.5710898,Evansville,IN,10/15/95,Bright Bold Primary Colored Lights in the Sky BUT no shape of a craft.,Unknown,4 minutes
36.6859829,77.5424809,Emporia,VA,10/15/95,The light moved to me and then disapeared,Light,10 minutes
41.49932,81.6943605,Cleveland,OH,10/15/95,Three lights spinning.,Light,10 minutes
38.9556031,90.1867764,Godfrey,IL,10/15/95,"Man &amp; 2 sons witness, pursue in car, strange obj. in rural area. Was size, approx. color of moon. Odd shape, haze. &quot;Winked out.&quot;",N/A,40 min
34.6648197,83.0965425,Westminster,SC,10/15/95,The low-hanging cloud looked too dense,Unknown,3 minutes
37.9000554,86.754988,Hawesville,KY,10/15/95,"Sightings of multiple craft disappearing and reappearing in sky, possible abduction.",Cigar,Several Minutes
34.6035669,98.39592909999999,Lawton,OK,10/15/95,Silvery orb hiding behind  cloud!,Sphere,2-3 minutes
41.156998,83.41687019999999,Fostoria,OH,10/15/95,it was amazing the way they stood perfectly still and took off .,Diamond,20 min
32.8383828,116.9739167,Santee,CA,10/15/95,A bright flourescent green light hovered between 2 houses then swiftly moved to left and then moved directly over us while we sat in ca,Light,08 seconds
38.9172216,97.2139094,Abilene,KS,10/14/95,Man sees  very large &quot;three fingers wide&quot; obj move slowly across sky from N to SW. Had 4 lights in triangular pattern. Faint hum.,N/A,N/A
48.276577,116.553465,Sandpoint,ID,10/14/95,"Man calls to report multiple witnesses to &quot;green fireball&quot; over WA, ID, MT.  Very strange object!",N/A,20 sec.
46.3237525,117.9724367,Dayton,WA,10/14/95,"Several young people witness &quot;lime-green, glowing sphere&quot; descend from W to E in N sky, disappear below hor.  Other repts.",N/A,5 sec.
48.46410969999999,115.8898946,Troy,MT,10/14/95,"Two women witness green obj, &quot;size of full moon,&quot; fly directly toward them, descend from SE.  Illuminated trees on top of mtn..",N/A,2 sec.
43.0730517,89.4012302,Madison,WI,10/14/95,"Co. emerg. dispatch relays sighting of &quot;pointed, oval obj.&quot; by family of 4.  When bright light dimmed, &quot;spikes sticking out&quot; visible.",N/A,6 min.
47.6587802,117.4260466,Spokane,WA,10/14/95,Empl. of KREM-TV calls regarding multiple sightings of bright green object w/ orange tail reported by multiple callers.,N/A,20 sec.
43.0747937,85.6123238,Belmont,MI,10/14/95,"One large triangle craft, 20 small red, clear, and green lighted craft",Triangle,30 minutes
47.4017661,122.3242902,Des+Moines,WA,10/14/95,"Man repts.&quot;long silver obj., seemed to roll, alternated from silver to gray.&quot;  Had a &quot;red glow&quot; near tail, released gold/yellow sparks.",N/A,2 min.
44.1305752,84.6072404,Meridith,MI,10/13/95,"4 rectagler lights 50 foot apart in a streight horizonal line, low huming noise",Light,3 minutes
47.2528768,122.4442906,Tacoma,WA,10/13/95,"Woman repts. 5-6 &quot;rocket ship-shaped things, w/sparks flying out back end,&quot; flying down vert.out of the night sky. Good rept.",N/A,3 min.
40.7127837,74.0059413,New+York+City,NY,10/13/95,"Late one evening, on my way home from work, I ran into a few old friends. We started talking about the good old days and hours passed w",Light,1 minute
41.7557501,124.2025913,Crescent+City,CA,10/13/95,"Woman goes outside to retrieve paper, sees &quot;some lights&quot; hovering above ocean.  White lights turn red, begin zigzagging, stopped.",N/A,10 min.
38.2544472,104.6091409,Pueblo,CO,10/12/95,3 Triangular craft passed directly overhead.  They were flying in a &quot;V&quot; formation at low altitude. There was no sound. These objects we,Triangle,10 sec.
38.4192496,82.44515400000002,Huntington,WV,10/11/95,"Young man &amp; grandfather see a &quot;large, orange, round or oval&quot; obj. move along horizon very fast, hover, move erratically.  Bizarre!",N/A,2 min.
40.6781784,73.9441579,New+York+City+(Brooklyn),NY,10/11/95,"Young man, mother witness watch strange red obj. 45 deg. above horizon w/ binocular.  Obj. suddenly fades, disappears from sight.",N/A,12 min.
37.8043637,122.2711137,Oakland,CA,10/10/95,"Woman repts.  bright light in NW sky, suddenly approaches her, flies slowly overhead.  Swept wings, 2 blurry lights either side.",N/A,1 minute
43.0389025,87.9064736,Milwaukee,WI,10/10/95,"Man  on Hwy 43 SW of Milwaukee sees large, bright blue light streak by his car, descend, turn, cross road ahead, strobe. Bizarre!",N/A,2 min.
18.220833,66.590149,Puerto+Rico+(Puerto+Rico),PR,10/10/95,Woman calls regarding fiance who is having peculiar &quot;flash back&quot; recall of alien type creatures.  Directed to investigator.,N/A,N/A
33.4483771,112.0740373,Phoenix,AZ,10/8/95,"Young man in back of p/u truck, witnesses &quot;flaming red/orange&quot; obj. to W, near Luke AFB.  Flares, dims, rises vert., winks out.",N/A,N/A
30.1527497,81.65282189999999,Jacksonville+(in+Mandarin),FL,10/7/95,"Triangualar shaped object hovering in place.VERY close to the road,and this was a busy highway with people in front and behind.At night",triangle,3 min
43.254739,86.1097779,Wolf+Lake,MI,10/7/95,"Woman repts. &quot;4 to 6 UFO's going in circle, coming together&quot; near her house.  Was alarmed by &quot;sighting.&quot;  (Prob. advertising lights.)",N/A,N/A
43.2341813,86.24839209999999,Muskegon,MI,10/7/95,Man reports peculiar lights circling his residence.  (Probable advertising lights.),N/A,N/A
40.6916132,112.0010501,West+Valley+City,UT,10/7/95,"Young woman &amp; boyfriend witness &quot;a black obj,...a round black disc w/ a dome,&quot; move slowly overhead.  Suddenly disappeared.",N/A,N/A
47.1853785,122.2928974,Puyallup,WA,10/6/95,"Man witnesses &quot;small whitish, blue-green ball&quot; pass overhead, flying to east.",N/A,15 min.
30.2751945,89.78117449999999,Slidell,LA,10/5/95,"Appeared to be a formation of sorts at first; 1500-2500' feet off the surface; 1/2-3/4 mile in length E-W, 1/4 mile wide N-S; over Lake",Formation,10min
36.1988592,115.1175013,North+Las+Vegas,NV,10/5/95,"Young woman goes outside, see group of teenage girls looking as sky.  Large cigar-ship w/ bright lights hovering in sky.  Other rpts.",N/A,N/A
41.8096201,72.8305154,Avon,CT,10/5/95,"((HOAX??))  Avon, CT UFO ID Software DooM Engine Open Source.",Oval,10 minutes
47.6062095,122.3320708,Seattle,WA,10/4/95,"Woman calls to report a &quot;UFO&quot; in southern sky.  Flashing red, blue, green lights; stationary.  (Possible star?)",N/A,N/A
32.7554883,97.3307658,Fort+Worth,TX,10/3/95,"A small, thin object moving in a fast circular motion",Disk,1.5 hrs
34.0452883,117.9436749,Volinda,CA,10/3/95,Woman &amp; 4 neighbors witness &quot;bright red light moving slightly across the sky.&quot;,N/A,N/A
44.6402434,93.1435497,Farmington,MN,10/2/95,"Man witnesses very small, VERY bright light descending rapidly in NE sky.  Approx. 1/10 diameter of moon.",N/A,5 sec.
40.1000828,123.79492,Garberville,CA,10/2/95,Employee from KMUD radio station calls regarding sighting(s) over northern CA during previous night.,N/A,N/A
41.8535518,71.46766389999999,N.+Providence,RI,10/2/95,"Man witnesses &quot;small white dot, that came out of clouds.&quot; Was slow-moving, white, w/ &quot;red on tail.&quot;",N/A,3 min.
38.440429,122.7140548,Santa+Rosa,CA,10/2/95,"Woman goes out to smoke, witnesses overhead &quot;something flapping its wings, like a pteradactyl.&quot;  Obj. flew NW. Had blue lights.",N/A,25 sec.
43.1978624,70.8736698,Dover,NH,10/1/95,six light triangle in dover,Triangle,10 minutes
37.8243715,122.231635,Piedmont,CA,10/1/95,"Woman repts. &quot;big disc the size of a volleyball, very bright like a landing light, w/ a green tinge on top,&quot; flew over  house to N.",N/A,N/A
30.267153,97.7430608,Austin,TX,10/1/95,"Man reports wife went out to empty trash, disappears for 90 min., returns disoriented and acting strangely.",N/A,90 min.
41.5731442,87.7932939,Tinley+Park,IL,10/1/95,"Sheild shaped craft spotted at outdoor concert with orange glow, moivng at high speed.",Other,20 seconds
40.6837121,73.5101258,Wantagh,NY,10/1/95,"Triangle with three large, dim, amber lights flew rapidly overhead and rotated once.",Triangle,1 Minute
38.3565773,121.9877444,Vacaville,CA,10/1/95,"Young woman, several family members witness peculiar orange disc hovering over neighbor's house.  Within 100 ft. (est.).",N/A,N/A
40.4620172,78.19973200000001,Williamsburg,PA,10/1/95,Low flying rectangular object with very bright lights on all sides.,Rectangle,10 minutes
38.4784144,82.63793869999999,Ashland,KY,10/1/95,Disintegrating object.,Disk,less than 5 minutes
45.42067489999999,122.6706498,Lake+Oswego,OR,10/1/95,Man reports witnessing 2 &quot;diamond-shaped objects overhead. (Second sighting on same day.),N/A,90 sec.
45.42067489999999,122.6706498,Lake+Oswego,OR,10/1/95,Man reports brief sighting of peculiar white object in daytime sky.  (See later sighting on same day.),N/A,5 sec.
41.6611277,91.5301683,Iowa+City,IA,10/1/95,"Man witnesses 2 &quot;white&quot; aircraft rendezvous at high altitude, fly toward bizarre obj. approaching very fast.  Obj. &quot;sparkled.&quot;",N/A,20 sec.
44.6648414,69.2416622,Troy,ME,9/30/95,"Man repts. obj. in night sky w/ flashing red, green, white lights.  Repts. than 4 of objects suddenly &quot;came together.&quot; (Facts unclear.)",N/A,N/A
40.1053196,85.6802541,Anderson,IN,9/30/95,"Young woman repts. seeing &quot;4 very bright lights.&quot;  Objs. hovered, then streaked off.  (Caller failed to leave phone #.)",N/A,1 min.
39.2903848,76.6121893,Baltimore,MD,9/30/95,U.F.O SEEN IN HAMPDEN IN THE FALL OF1995,Disk,5 min
40.9747705,84.8682972,Monroeville,IN,9/30/95,UFO in Monroeville Indiana,Triangle,2 min. or so
41.8535518,71.46766389999999,N.+Providence,RI,9/30/95,"Man reports seeing cluster of 3 objects &quot;like white balloons&quot; pacing airliner in N sky.  Objs. disappear, return.  Change color,shape.",N/A,N/A
44.324513,69.8603256,Manchester,ME,9/29/95,Mother calls to report that her son would not go to bed &quot;until he had drawn in detail the interior of ship&quot; he had seen that night.,N/A,N/A
44.324513,69.8603256,Manchester,ME,9/29/95,"Man &amp; son driving on I-95 see strange, stationary light, then 2nd streaks up.  First obj. approaches car.  Son recalls details of ship.",N/A,10 min.
38.5815719,121.4943996,Sacramento,CA,9/29/95,Man reports object with white &amp; red lights &quot;very close to sun and moon.&quot; (??)  (Detailed facts not available.),N/A,3.5 hrs.
37.7749295,122.4194155,San+Francisco,CA,9/29/95,Woman sees a bright white obj. hovering steadily in daytime sky.  1/5 size of moon. Suddenly got smaller. (Was soap bubble in sky.),N/A,6 sec.
36.1699412,115.1398296,Las+Vegas,NV,9/28/95,"Young woman witnesses &quot;neon green &amp; yellow&quot; object zigzagging overhead.  Dog very agitated, would not leave house.",N/A,15 sec.
38.2975381,122.286865,Napa,CA,9/28/95,"Woman repts. seeing obj. hovering in sky to W of Napa. Claims &quot;it blew up into 5 pieces.&quot; Obj. turquoise, w/ tower. (Unconfirmed.)",N/A,N/A
33.4941704,111.9260519,Scottsdale,AZ,9/28/95,Sighting of lone fireBall on 09/28/95.In the hours between 8pm and 10pm.,fireball,10-15 Seconds
47.5288233,114.1015013,Ronan,MT,9/25/95,Woman &amp; fiance' witness strange light in E sky.  Was visible at 0610 hrs. same day.  (Not vis. in same area of sky next night.),N/A,N/A
47.69320039999999,114.1631275,Polson,MT,9/25/95,Radio DJ reports seeing an object &quot;strobing blue &amp; red&quot; in eastern sky.,N/A,N/A
47.6062095,122.3320708,Seattle,WA,9/25/95,"Cloudless night, clear: craft silent, six round, pale orange lights on underside of craft; travelled south to north, not fast.I saw it ",Triangle,1-2 min.
43.0630833,83.8510732,Flushing,MI,9/25/95,"Man hears dog barking, goes outside, sees a bright &quot;falling star.&quot;  Looked like &quot;a spider dropping on a string.&quot; (See 26SE95.)",N/A,2 min.
43.0630833,83.8510732,Flushing,MI,9/25/95,"Man, wife, and son witness same obj.seen night before.  With  binoculars, obj. looks emerald, red, and brown.",N/A,N/A
45.42067489999999,122.6706498,Lake+Oswego,OR,9/25/95,Man reports witnessing &quot;black disc&quot; above his garage.  Obj. was &quot;flipping. (Same person reports other sightings on other dates.),N/A,N/A
40.7607793,111.8910474,Salt+Lake+City,UT,9/25/95,"FAA controller reports seeing bright red/orange obj. streaking E to W in S sky 20 deg. above horizon.  Left straight,glowing trail.",N/A,8 sec.
28.8999815,82.37454009999999,Hernando,FL,9/25/95,well i was over a friends house i was 15 years old. i have a telescope and we were looking at the moon it was a clear night and fule mo,Triangle,2 minutes
47.8209301,122.3151313,Lynnwood,WA,9/24/95,Man reports seeing bright light to west of Lynnwood.  (Detailed facts not taken.),N/A,N/A
45.7542809,122.8776039,Scappoose,OR,9/24/95,"Three young people witness a triangular-shaped craft hovering nearby.  Craft had 2 white lights, 1 red.  Maneuvered slowly.",N/A,3 min.
43.6187102,116.2146068,Boise,ID,9/24/95,"Woman calls to report seeing large, triangular-shaped, black mass hovering, moving slowly.  Son sees same thing from diff. loc..",N/A,20 min.
28.2919557,81.40757099999999,Kissimmee,FL,9/24/95,green glowing disk with lizard like creatures.,Disk,10 min
29.7957633,90.82287099999999,Thibodaux,LA,9/23/95,"Eyewitness of a large, silent,  bluish-white object traveling over Thibodaux from east to west.",Other,1 minute
39.2136434,112.3075862,Delta+(65+miles+SW+of),UT,9/23/95,Huge flashing someting passed overhead. It lit about 1/3 of the sky. It flashed like a strobe light at about 4 second intervals.,Flash,15 minutes
45.42067489999999,122.6706498,Lake+Oswego,OR,9/23/95,Man reports seeing peculiar flashing light above house in daytime sky.  Observed &quot;black disc overgarage.&quot;,N/A,N/A
45.5230622,122.6764816,Portland,OR,9/22/95,"Man on way to work witnesses 2 bright, white &quot;stars&quot; over the Columbia R.  Suddenly, started doing incredible maneuvers. Silent.",N/A,20 sec.
30.2265949,93.2173758,Lake+Charles,LA,9/22/95,"Man &amp; son witness 3 bright, &quot;neon red&quot; objects flying overhead in tandem formation.  Objs. suddenly maneuver to form triangle.",N/A,3 min.
43.1393867,80.2644254,Brantford+(Canada),ON,9/22/95,Was parked on the side of a highway surounding farm fields.  Looked up in the distance and noticed a large light.  It was at a standsti,Light,5 mins
47.6739881,122.121512,Redmond,WA,9/22/95,"Two young girls out walking, hear dogs barking, then see bizarre craft hovering nearby.  Then see 4 others.  Round, large, w/ lights.",N/A,N/A
32.8227304,109.7351896,"Safford+(Outside+of,+Mt.+Graham)",AZ,9/22/95,"ominous fog, amber glow and loss of time",Unknown,Unknown
32.3643098,88.703656,Meridian,MS,9/22/95,I was on the 5th floor of the hospital in the room with my grandmother who was dying. She died at approx 4 pm. Other family members wer,Other,30 sec
47.6062095,122.3320708,Seattle,WA,9/21/95,OR citizen on Space Needle sees 3 &quot;dull orange lights&quot; fly overhead.  Objects performed some unusual movement in formation.,N/A,90 sec.
39.5708354,97.6625396,Concordia,KS,9/21/95,"Cloud Co., KS, Sheriff's office reports &quot;2 circular spheres, w/ revolving center,&quot; had been obtained from citizen. Many other callers.",N/A,N/A
31.3060513,82.2420661,Black+Shear,GA,9/20/95,"Multiple, bizarre craft reported by local law enforcement officers.  UFO researchers saw same objects from 30 mi. away.",N/A,4 hrs.
33.5428954,90.5370327,Sunflower,MS,9/20/95,1995 Blue cylinder object flies over car stops and darts off with great speed.,Cylinder,5 mins
47.1853785,122.2928974,Puyallup,WA,9/20/95,"Man repts. seeing obj. &quot;w/ long tail, several football fields long.&quot;  Left bright, broad trail in night sky.",N/A,N/A
42.6064095,83.1497751,Troy,MI,9/20/95,"Loud vibrating sound, two objects merged &amp; then shot away so fast",Changing,30 seconds
55.204498,162.7183867,Cold+Bay,AK,9/20/95,Fireballs traveling low on horizon at great rate of speed and manueverablilty,Fireball,2minutes
44.51915899999999,88.019826,Green+Bay,WI,9/20/95,"CLEARLY VIEWED A LARGE, TRIANGULAR SHAPED OBJECT.BEST ESTIMATE ON SIZE WOULD BE 150 TO 200 FEET IN LENGTH.",Diamond,25 minutes
39.716171,83.8777063,Wilberforce,OH,9/20/95,Over 40 passengers!,Oval,5:09
39.5296329,119.8138027,Reno,NV,9/20/95,"Man, wife, 3 relatives witness &quot;rounded, saucer-shape&quot; obj. overhead.  Flashing white &amp; colored lights. Moved like &quot;bouncing ball.&quot;",N/A,1 hour
40.8020712,124.1636729,Humbolt,CA,9/19/95,"USNavy Ch. Petty Off. repts. seeing &quot;red orb under Jupiter.&quot;  Obj. moved right, then left, then zipped off at very fast rate.",N/A,N/A
36.3134397,82.3534727,Johnson+City,TN,9/19/95,"Bizarre, complex sighting of multiple objs. near Tri-City Airport. Bell-shaped, hovered, maneuvered strangely.  Shot light at ground!",N/A,N/A
37.42410599999999,122.1660756,Stanford,CA,9/19/95,"Woman out walking sees &quot;round object w/ ring oriented vertically around it.&quot;  Appeared in E sky, passed overhead to hor. in 30 sec..",N/A,1 min.
39.114053,94.6274636,Kansas+City,KS,9/18/95,"Man reports seeing multiple, &quot;see through&quot; objects racing around sky. Claimed many calls made to local TV.  (Adv.  lights!)",N/A,N/A
47.6062095,122.3320708,Seattle,WA,9/18/95,"Woman repts. a strange light passes overhead at extremely high speed.  Flew totally silently, left an &quot;after image&quot; in the sky.",N/A,N/A
41.5568315,71.4536835,N.+Kingston,RI,9/18/95,"Young man from Univ. of RI calls to report seeing small dot in sky that &quot;does loop-dee-loops, blinks.&quot;  Had little tail behind it.",N/A,90 min.
32.2528519,109.8320124,Wilcox,AZ,9/18/95,"Man sees oblong, white/yellow obj. streak by his car, leaving a thin &quot;contrail.&quot; Flew toward Wilcox, turned right, flew toward Mex.",N/A,1 minute
41.4871146,120.5424555,Alturas,CA,9/18/95,"Two brothers pull off highway to rest during all-night drive.  One remembers experiencing strange,  sharp buzzing sound; confused.",N/A,N/A
32.9483335,96.7298519,Richardson,TX,9/17/95,"2 young men tossing football on high sch. grounds witness approx. 15-20 bizarre obj. in stormy sky.  Some hovered, others moved.",N/A,30 min.
38.8338816,104.8213634,Colorado+Springs,CO,9/17/95,Man reports witnessing a gray colored &quot;flying-wing&quot; shaped craft flying silently overhead.  Moved at steady pace.,N/A,N/A
42.5183938,123.4202831,Merlin,OR,9/16/95,Woman relays report of some type of UFO sighting in town.  (Limited facts.),N/A,N/A
47.6062095,122.3320708,Seattle,WA,9/16/95,Man repts. large &quot;vee-shaped boomerang w/ fluorescent light on leading edge&quot; pass slowly overhead.  Estimated 500' altitude.,N/A,20 sec.
45.2998418,122.7737062,Wilsonville,OR,9/16/95,Bright lights from miles away to within 150 yds and 300 ft in the air.,Light,3 minutes
46.3140884,114.1128734,Corvallis,MT,9/15/95,"Young couple witness strange &quot;white light w/ 2 red lights&quot; pass overhead.  Object made several sharp turns, flies strangely.",N/A,N/A
41.3117471,75.83741739999999,Wyoming,PA,9/15/95,I was driving home late at night an observed 3 columns of green light in a field.,Unknown,10 minutes
40.7127837,74.0059413,New+York+City,NY,9/15/95,Senior med. care exec. calls to discuss events re 09/15/95 sighting in NYC harbor.  Many other responsible witnesses found.,N/A,18 min.
54.4425721,124.2510475,Fort+St.+James+(Canada),BC,9/15/95,Bright glowing ball,Sphere,approx 2 min.
33.9319578,117.9461734,La+Habra,CA,9/15/95,UFO in sky with light blinking independent ring of light disk saucer shape,Disk,5 to 7 mins
40.7127837,74.0059413,New+York+City,NY,9/15/95,"Woman reports many passengers aboard Staten Isl. ferry witness huge craft rise from, roil water!  Excellent report!  Video prepared.",N/A,18 min.
43.7588577,70.39870599999999,Windham,ME,9/15/95,"Craft rises slowly into space, takes off at speed of light into space.",Light,5 minutes
47.6062095,122.3320708,Seattle,WA,9/15/95," 7 witnesses on Phinney Ridge see 4-6 tiny metallic &quot;cigars&quot; hovering, moving, ascending in cloudless sky.  Dramatic sighting!",N/A,3 hrs.
36.1699412,115.1398296,Las+Vegas,NV,9/15/95,garbage can shaped object,Other,20-25 min
47.6739881,122.121512,Redmond,WA,9/15/95,"Young man w/ 2 co-workers witness tiny, distinctly white round disc drifting slowly toward NE.  Flew in dir. 90 deg. to winds.",N/A,6 min.
32.9628232,117.0358646,Poway,CA,9/15/95,"Rainbow colored cloud that changed colors constantly, hovering just above treeline.",Other,6 min.
28.2919557,81.40757099999999,Kissimmee,FL,9/15/95,green glowing glow around silver disk with red ball on bottom,Disk,5 min
61.5813889,149.4394444,Wasilla,AK,9/15/95,Noticed two objects traveling in an erratic manner in a southerly direction out of the North-East.,Light,10:00
42.88644679999999,78.8783689,Buffalo,NY,9/14/95,The starlike object moved VV from right to left. Iam a former U.S.A.F. fighter bomber crewchief.,Other,2 seconds
31.3445471,109.5453447,Douglas,AZ,9/14/95,Young woman returning from church w/grandmother witness strange obj. w/ &quot;flashing lghts going in circles.&quot; Cell phone had static.,N/A,15 min.
46.7500266,67.7111283,Columbus+(Canada),NB,9/14/95,"Man steps outside house to smoke, see obj. extending out over edge of roof.  Sees bizarre obj. w/ solid, hazy lights streak off.",N/A,5 sec.
40.292292,79.881715,Clairton,PA,9/14/95,"Young woman w/ 4 friends see obj. streak out of the sky, stop, and hover in N sky.  Larger than sun; orange &amp; yellow.",N/A,10 min.
39.3221089,123.113059,Potter+Valley,CA,9/14/95,"2nd similar sighting.  Woman sees a large, bright red/orange disc, followed by blinking sphere, streak by window 2nd day in row.",N/A,5 sec.
42.5792027,84.4435845,Mason,MI,9/14/95,"Woman sees small, white light--&quot;like a giant lightning bug&quot;--move along wind row of trees.  Very bizarre.",N/A,40 sec.
47.6445386,122.6948697,Silverdale,WA,9/13/95,"Man feels urge to go outside house.  Briefly sees formation of 4 &quot;bright, pale orange&quot; objects streak overhead very fast to N horizon.",N/A,2 sec.
39.3221089,123.113059,Potter+Valley,CA,9/13/95,"Woman suddenly awakens at dawn and witnesses bright red &quot;dot&quot; hovering outside her window. Suddenly got larger, moved to N.",N/A,30 sec.
40.6110589,111.8999353,Midvale,UT,9/13/95,Man witnesses multi-colored obj. moving relative to nearby stars.  Appeared to have two smaller objects on each side of it.,N/A,N/A
33.293945,111.0962305,Superior,AZ,9/13/95,"Night watchman at Magna Mine reports motionless, multi-colored obj. in night sky.  (Possible star?)",N/A,30 min.
46.87871759999999,113.996586,Missoula,MT,9/13/95,Man reports witnessing at least 15-20 strange looking objects streaking silently overhead.,N/A,45 min.
30.4382559,84.28073289999999,Tallahassee,FL,9/13/95,"Two men witness &quot;large white disc, w/ slight yellow tinge, larger than full moon,&quot; move slowly across sky to S,  turn. Halo around it.",N/A,30 sec.
27.8005828,97.39638099999999,Corpus+Christi,TX,9/13/95,"Man out walking sees bizarre obj., w/ pulsing red light on top, beaming light on house!  Obj.  was approx. 1/2 block distant.",N/A,10 min.
41.0464858,73.94958179999999,Orangeburg,NY,9/12/95,"Young couple witness &quot;yellowish white&quot; disc approach their location on remote mtn. top.  Streaks off, returns w/ 2nd smaller obj.!",N/A,15 min.
40.4862157,74.4518188,W.+New+Brunswick,NJ,9/12/95,Woman sees &quot;yellow orange disc&quot; streak overhead as she exits NJ Turnpike at Exit 15E.  Obj. larger in appearance than full moon.,N/A,6 sec.
41.39091390000001,72.8595447,North+Haven,CT,9/12/95,"Woman observes bizarre object hovering motionless in cemetary.  Looked like &quot;large, bright red bicycle helmut w/ speckles on it.&quot;",N/A,5 min.
39.2508229,106.2925238,Leadville,CO,9/12/95,"Several adults, waiting for tourist bus, witness 2 tiny metallic-looking objects in daytime sky.  Objs. suddenly streak off to W &amp; NE.",N/A,2 min.
41.3556539,72.0995209,New+London,CT,9/11/95,FAA controller repts. seeing extremely bright &quot;meteor&quot; streak almost straight down to southern horizon.  &quot;Prob. visible over L. Isl.&quot;,N/A,3 sec.
48.4106373,114.3352652,Whitefish,MT,9/11/95,Man &amp; wife witness cluster of lights move along hor. to NE near Salish Mtn. Obj. suddenly &quot;fires&quot; 4 &quot; bolts of light&quot; at mtn. twice.,N/A,5 min.
28.0836269,80.60810889999999,Melbourne,FL,9/11/95,i believe it was during a night time shuttle launch. i walked out side to see it and i looked up and i and i saw this big triangle like,Triangle,N/A
36.1699412,115.1398296,Las+Vegas,NV,9/11/95,"Man repts. bright, multi-colored obj. in NW night sky. Disappeared while he was in house.",N/A,N/A
36.9458952,94.0002099,Pierce+City,MO,9/11/95,"Cigar- shaped metallic object hovers over field- shines light, disappears in daylight near Pierce City MO.",Cigar,5 sec.
36.9458952,94.0002099,Pierce+City,MO,9/11/95,update 9/11/95 ufo Pierce City,Cigar,few seconds
40.7607793,111.8910474,Salt+Lake+City,UT,9/11/95,"FAA controller, 5 airline employees witness 6 very bright objects streaking N to S in western sky.  No radar returns.! Exclnt report!!",N/A,1 minute
41.3497456,72.0790717,Groton,CT,9/11/95,"Immense triangular craft moving 20mph over Groton, CT, and Montauk, LI, NY, at least 1 mi wide.",Triangle,1 hour
47.30732279999999,122.2284532,Auburn,WA,9/10/95,"Young woman sees &quot;black boomerang w/ dim lights&quot; descend in sky. Then, she w/ 5 friends, see triangular ship w/ 5 lights hovering.",N/A,25 min.
46.8138783,71.2079809,Quebec+(Canada),PQ,9/10/95,"fast white light decelerating to a complete stop and taking off again at a very slow pace,then shutdown.",Light,16 mins
46.88467079999999,71.4894801,Valcatier+(Military+Base)+(Canada),PQ,9/10/95,white light coming super fast to a stop then taking off again slowly and shutting off its light like a switch.,Light,15mins
39.1200418,88.5433829,Effingham,IL,9/10/95,ILLinois. siting,Cigar,30sec
36.1699412,115.1398296,Las+Vegas,NV,9/10/95,"Man, wife, son witness tiny, milk-white sphere hovering in cloudless sky. Streaks off to NW.  15 min. later see silver disc overhead.",N/A,8 min.
36.8348383,81.5148368,Marion,VA,9/10/95,The football field sized object was triangular and had a gondola - shaped structure underneath.,Triangle,10 minutes
29.267464,97.76444289999999,Nixon,TX,9/10/95,FLYING DISK AT ABOUT 40 FEET ABOVEGROUND AND NEVER MADE A SOUND.,Disk,N/A
47.6445386,122.6948697,Silverdale,WA,9/9/95,Man outside smoking witnesses 3 &quot;dull orange&quot; circular craft streak overhead to west.  Each approx. 1/4 diameter of full moon.,N/A,2 sec.
45.42067489999999,122.6706498,Lake+Oswego,OR,9/9/95,"Man sees  w/ binocs. motionless, white obj.. Suddenly disappears then reappears in other part of sky.  Red, metallic in appearance.",N/A,N/A
45.5230622,122.6764816,Portland,OR,9/8/95,"Man relays radio repts. about large, bright object, &quot;diameter of full moon,&quot; seen over W OR. Vis. through overcast, beeping sound!",N/A,N/A
42.3265152,122.8755949,Medford,OR,9/7/95,3 silver circular shaped objects at different time spotted in the skies over Southern Oregon in 1995. All were the same in shape and co,Circle,25
43.695318,71.6306317,Ashland,NH,9/6/95,Breathable fluid tank; multiple species; peaceful agenda,Cylinder,5.5 hours
36.2134719,112.0580965,"Grand+Canyon,+North+Rim",AZ,9/6/95,"While driving North on the only paved road out of the &quot;Grand Canyon&quot; national paark after veiwing the sunset there we saw a  very, very",Light,1/2 second
43.6187102,116.2146068,Boise,ID,9/5/95,"Three adults witness what appears to be &quot;a straight line of 5-7 lights&quot; hovering motionless in sky.  Definite, distinct colors.",N/A,30 min.
35.0853336,106.6055534,Albuquerque,NM,9/5/95,"It moved fast and stopped over my head. Then, it hovered for 10 sec. before it speed off like it had turned. But the object never turne",Triangle,20 sec.
35.9517674,95.65081400000001,Coweta,OK,9/5/95,I have done conciderable research on this subject since contact. It fits documented discriptions listed in UFOlogy by Jim Marrs.,Disk,4 hours
38.8338816,104.8213634,Colorado+Springs,CO,9/4/95,"Man repts. witnessing a &quot;bright star&quot; in night sky, with white, red, green,  blue colors.  Began to move, then suddenly disappeared.",N/A,N/A
33.9564194,118.4422317,Playa+del+Rey,CA,9/4/95,Anomalous light approaches LAX neighborhood and disappears at high altitude.,Light,1min.
36.8529263,75.97798499999999,Virginia+Beach,VA,9/3/95,"Man &amp; wife witness twinkling light to east.  It &quot;drifted left, moved, then disappeared.&quot;  (Possible star?)",N/A,40 min.
41.8731531,72.8581549,West+Simsbury,CT,9/3/95,West Simsbury Late 1995 Nightmare Imp Woods Alien Misinterpreted.,N/A,10 minutes
40.7830603,73.9712488,New+York+City+(Manhattan),NY,9/2/95,"Two males leaving concert in Central Park witness strange moving light close to E. horizon.  Moved very precisely, turned, vanished.",N/A,45 sec.
44.9886537,101.2224805,Eagle+Butte,SD,9/1/95,The unexplained bright blue light.,Light,3 minutes
32.0835407,81.09983419999999,Savannah,GA,9/1/95,Strange spinning lights behaving strangely in downtown Savannah,Diamond,3 minutes
36.2082943,115.9839147,Pahrump,NV,9/1/95,9;30a.m. six starlike objects following an airforce jet spotted  in the northern sky.  11;30a.m. approximately 145 starlike objects sig,Light,12 minutes
36.2082943,115.9839147,Pahrump,NV,9/1/95,"Time 9:00 a.m. went outside to pump water up from well.  I heard an airforce jet,so I looked up.  At about 1:00 oclock high, the jet wa",Changing,Two hours
46.9736986,124.1562852,Ocean+Shores,WA,9/1/95,"Black triangular craft vibrates me out of sleep, blocks out sky. Verified next day by independant witness.",Triangle,5 minutes
39.5296329,119.8138027,Reno,NV,8/31/95,"Man goes outside to start car.  Sees &quot;two balls of light w/ different colors around them.  Something &quot;square&quot; underneath, maybe doors.",N/A,N/A
47.9445396,122.3045815,Mukilteo,WA,8/31/95,"Six adults witness multiple bizarre objects near Paine Field.  Objects hovered, jumped suddenly, disappear.  Emitted yellow light.",N/A,20 min.
40.8478065,74.5747248,Randolph,NJ,8/31/95,"Young girl repts. seeing cigar-shaped craft w/ very bright lights, big round light in front, hovering above tops of nearby trees.",N/A,2 min.
43.2052594,96.2950263,Rock+Valley,IA,8/30/95,"I was out stargazing and a large, completely silent triangle UFO passed overhead at phenomenal speed towards the East. Two more went ov",Triangle,1 hour
35.3732921,119.0187125,Bakersfield,CA,8/30/95,"Man reports very brilliant, red object rising in western sky.  (Rocket??)",N/A,N/A
38.2706059,121.944889,Travis+AFB,CA,8/30/95,"USAF sgt. reports sighting &quot;small round light, then a gap, then a long trail of fire behind it&quot; in western sky.  Front of obj. white.",N/A,3 min.
36.7468422,119.7725868,Fresno,CA,8/30/95,Woman calls to report sighting of very bright red object rising in western sky.  (Rocket from Vandenburg AFB??),N/A,N/A
33.9616801,118.3531311,Inglewood,CA,8/29/95,"Woman reports observing peculiar light flashing white, green, blue.  Sees same object 2 days later. (Possible star?)",N/A,N/A
33.9319578,117.9461734,La+Habra,CA,8/29/95,"Man sees 2 triangle hovering in night sky.  They dim, get brighter.  (All facts not available.)",N/A,N/A
43.6187102,116.2146068,Boise,ID,8/29/95,Man repts. sighting bright white light streaking E to W 60 deg. above S horizon.  1/3 diameter of full moon. 2nd sighting by others.,N/A,1 sec.
37.7030646,85.8649408,Elizabethtown,KY,8/29/95,Black Triangular shaped craft with 3 pulsating red lights.,Triangle,1 minute
34.1808392,118.3089661,Burbank,CA,8/28/95,"Woman reports seeing bizarre &quot;white orb&quot; in sky.  As big as an aircraft.  Appeared to be &quot;moving sideways.&quot;  Called police, USAF.",N/A,5 sec.
39.3722121,104.8560902,Castle+Rock,CO,8/28/95,"Man repts. seeing &quot;a slender object, with a string of lights across body.&quot; As wide as a full moon.  Observed w/ binocs.  Very unusual.",N/A,10 min.
46.7638275,89.0862501,Mass+City,MI,8/28/95,Woman sees a &quot;pecular light w/ a strange shadow.&quot;  No sound.  Repts. that State Patrol received multiple reports.,N/A,4 sec.
45.3573429,122.6067583,Oregon+City,OR,8/27/95,Family camped 20 mi. S of Mt. Hood witness strange object streak through 50 deg. across sky.  Other observers in campground.,N/A,30 sec.
45.4900153,121.8223075,Lost+Lake,OR,8/27/95,Man &amp; wife witness &quot;line of 8-9 lights in a row.&quot;  Center light(s) blinked on and off.  Lights then streak out across sky.  Strange.,N/A,1 minute
42.3265152,122.8755949,Medford,OR,8/27/95,"Man repts. seeing a strange, metallic obj. &quot;w/ no protuberances, but dome in center,&quot; pacing a landing C-130 aircraft.  Disappears.",N/A,15 sec.
34.0522342,118.2436849,Los+Angeles,CA,8/27/95,Man repts. large &quot;ball of fire&quot; descend at 45 deg. angle.  Descended behind mountains 6-7 mi. distant.  Prominant tail. Ejected obj.,N/A,2 sec.
33.4483771,112.0740373,Phoenix,AZ,8/26/95,"Man witnesses a &quot;blue, spherical object go across the sky slowly.&quot;  Obj. was below clouds.  Slightly smaller than full moon.",N/A,3 min.
25.5516034,80.6326916,Dade+County,FL,8/26/95,Metro Dade Police relay UFO report.  (No follow-up call from observer.),N/A,N/A
48.1469683,103.6179745,Williston,ND,8/26/95,"Man, wife, and 2 adults witness peculiar, bright white light pacing their car on highway.  Two other lights appear, move around sky.",N/A,10 min.
47.30732279999999,122.2284532,Auburn,WA,8/26/95,"Woman, son, 3 men witness obj. w/ &quot;4 bright lights, 1 big red light underneath,&quot; suddenly appear in night sky.  It rose, streaked.",N/A,5 min.
36.3091865,117.5495846,Inyo+Co.,CA,8/26/95,"Inyo Co. Sheriff's office relays UFO rept..  Person reported &quot;large, green &amp; yellow, oblong object&quot; flying east.",N/A,N/A
40.2338438,111.6585337,Provo,UT,8/26/95,"UFO investigator witnesses bright, silver/white object approach over nearby mountains in approx. 5 seconds, hover for 2-3 minutes.",N/A,3 min.
38.5347193,105.9989022,Salida,CO,8/26/95,"Young man videos peculiar disc, &quot;w/ double level row of windows,&quot; hovering N of city. Many witnesses, TV coverage. Good video.",N/A,30 min.
40.7849921,122.3083332,Interstate-5,CA,8/26/95,UFO contact on a road trip,Cigar,1:10
33.7481576,86.8086048,Morris,AL,8/25/95,"There was a roundish object with glowing, shifting lights lining the edges of the craft as it hovered silently above the trees.",Other,40 seconds
41.7557501,124.2025913,Crescent+City,CA,8/25/95,50-60 people witness several peculiar objs. to W maneuvering over water.  Call goes out over CB radio net regarding objects.,N/A,N/A
43.653226,79.3831843,Toronto+(Canada),ON,8/25/95,"U.F.O. shoots at large meteor over Toronto, Canada three times and disintegrates it.",Diamond,2Hrs. 45MIN.
27.3364347,82.53065269999999,Sarasota,FL,8/25/95,"Man repts. seeing &quot;elliptical, solid object&quot; descend through clouds.  Was not plane, had no wings.  Obj. darted &quot;all over the place.&quot;",N/A,5 sec.
47.76095,122.2055883,Bothell,WA,8/25/95,"Woman driving on Redmond-Wdinville Hwy hears strange buzzing noise, then sees peculiar blue light, bigger than moon, going N..",N/A,5 sec.
46.5883707,112.0245054,Helena,MT,8/25/95,"Woman &amp; children at fam. reunion see unlighted, round obj. &quot;colored like pearl&quot; pass overhead against wind.  See 3 more sec. later.",N/A,2 min.
39.114053,94.6274636,Kansas+City,KS,8/25/95,Man calls to report AP news wire report regarding object over W Pennsylvania.  Report appears to contain multiple tech. errors.,N/A,N/A
42.083639,78.42992699999999,Olean,NY,8/25/95,"low, slow moving Triangular shaped craft with lights on pionts of triangle and one in center on bottom sighted",Triangle,4 to 5 minutes
42.1167606,71.8647577,Oxford,MA,8/25/95,"4 Balls of Light, changed color followed by search light scanning woods and back yard.",Light,10 Minutes
39.9991865,78.2388071,Breezewood,PA,8/25/95,"Prof. race car driver encounters bizarre, bright blue obj. hovering above ground in lonely valley.  Obj. strobes blue, green, streaks",N/A,5 sec.
41.3216845,81.03976519999999,Nelson+Ledges,OH,8/25/95,blue spherical object,Sphere,1 minute
41.1828353,80.76535799999999,Niles,OH,8/25/95,I had just gone to bed when I noticed bright lights coming towards my home. I immediately got up and went towards the window and saw t,Disk,15 seconds
41.6556465,74.68932819999999,Monticello,NY,8/25/95,"Copied written report:  Physicist/astronomer sees huge, pulsing fireball to west of New York City.",Circle,4-5 sec.
41.87422249999999,80.1317236,Edinboro,PA,8/25/95,"5 youth witness huge, extremely bright obj. streak from N to S.  Obj. descends through clouds, accelerates, levels out. Alarmed.",N/A,20 sec.
40.3014581,79.5389289,Greensburg,PA,8/25/95,Experienced UFO investigator calls to report receipt of multiple calls regarding bright obj. that had just passed N to S over W PA.,N/A,N/A
41.5111646,80.3697888,Adamsville,PA,8/25/95,"Mother, daughter, friend witness huge, lighted ball streak overhead.  &quot;Turned whole sky blue.&quot;  Flew N to S.  Size of full moon.",N/A,10 sec.
41.49932,81.6943605,Cleveland,OH,8/25/95,Man witnesses 3-4 extraordinarily bright flashes above horizon in eastern sky.  Thinks nuclear power station exploded.  Upset.,N/A,10 sec.
40.44062479999999,79.9958864,Pittsburgh,PA,8/25/95,object  travels very fast horizonally and then shoot straight up at 90 degree angle,Unknown,45 seconds
41.6556465,74.68932819999999,Monticello,NY,8/25/95,"Physicist (Ph.D) repts. seeing &quot;gigantic light, size of moon, w/ green tint&quot; streak N to S 10 deg. above W horiz. &quot;NOT a meteor.&quot;",N/A,6 sec.
42.9026136,78.74457199999999,Cheektowaga+(near),NY,8/25/95,bright ufo  lights up night in new york near buffalo,Unknown,4-6 seconds
45.8371591,78.3791239,Algonquin+Park+(Canada),ON,8/24/95,My first actually sighting of ufo was in Canadian National park...Algonquin Park,Light,20 minutes
42.3211522,85.17971419999999,Battle+Creek,MI,8/24/95,Older woman reports witnessing &quot;a square thing w/ a lot of lights&quot; that descended out of night sky.  (Facts incomplete.),N/A,N/A
38.2526647,85.7584557,Louisville,KY,8/23/95,"Mother &amp; daughter witness &quot;donut-shaped&quot; obj. beside highway.  Pick up friend at destination, return to sighting location. Scared.",N/A,10 min.
34.09751,117.6483876,Upland,CA,8/23/95,Man reports seeing object in sky &quot;with lights going around it.&quot;  (Facts incomplete and unclear.),N/A,N/A
33.8352932,117.9145036,Anaheim,CA,8/23/95,"Mother &amp; son witness bizarre obj., &quot;the size of a football,&quot; hovering in sky.  They pursue it in truck for some reason.  Both alarmed.",N/A,3 min.
47.1853785,122.2928974,Puyallup,WA,8/23/95,Young woman driving to work sees &quot;mushroom-shaped obj. w/ ring around it&quot; streak over hwy.  Sees 2nd obj.. Very alarmed.,N/A,10 sec.
42.9849233,81.2452768,London+(Canada),ON,8/23/95,Small red and white light travelling in odd directions.,Light,2-3 minutes
33.4255104,111.9400054,Tempe,AZ,8/22/95,"Woman, 6 miles E of Tempe, sees 3 obj. plummet very fast toward ground.  Perform incredible maneuvers, rise back into sky.",N/A,15 sec.
34.0922335,117.435048,Fontana,CA,8/22/95,"Woman hears &quot;thump&quot; on roof, goes outside, sees bright orange orb above house!  Obj. moved &quot;chaotically.&quot;  Multiple witnesses.",N/A,10 min.
34.0922335,117.435048,Fontana,CA,8/22/95,"Man, 20 neighbors, see prominant orange obj. moving across clear sky. Zigzags, swirls, disappears from sight, reappears as white.",N/A,2 min.
47.76095,122.2055883,Bothell,WA,8/22/95,"Man witnesses peculiar craft &quot;with vertical stabilizer,&quot; which suddenly streaks off. Wife witnessed same obj. from different position.",N/A,N/A
34.5400242,112.4685025,Prescott,AZ,8/22/95,"Father &amp; son witness strange obj. streak across sky &quot;in clump of cloud.&quot;  Seconds later, they crest hill, obj. is gone, no clouds vis.",N/A,2 sec.
33.4483771,112.0740373,Phoenix,AZ,8/22/95,"Many witnesses see obj., &quot;like missle w/ yellow fire shooting out back,&quot; pass directly overhead.  Obj. appeared to eject small obj.",N/A,30 sec.
37.2608936,85.49885479999999,Greensburg,KY,8/22/95,08/22/95    1:00     Greensburg  Ky        Rectangular         5 min.  Cloud with a ship inside       10/02/05,Rectangle,5 min.
38.8813958,94.81912849999999,Olathe,KS,8/21/95,"3 carloads of young people witness red light hovering over corn field.  Then see a large, gray, domed obj. hovering nearby.",N/A,30 sec.
47.6062095,122.3320708,Seattle,WA,8/21/95,"Woman reports seeing bizarre, large, white light over Seattle.  (Limited facts available as of 21NO95.)",N/A,N/A
41.5226199,86.65103289999999,Laporte,WA,8/21/95,Several children report to their father that they witnessed &quot;red star&quot; streak across sky.,N/A,5 sec.
47.2528768,122.4442906,Tacoma,WA,8/21/95,Man witnesses &quot;blue-green object&quot; streaking from the eastern sky to the SE.,N/A,1 sec.
43.8013556,91.23958069999999,La+Crosse,WI,8/21/95,"Trucker witnesses &quot;big, orange ball&quot; flying directly toward him from the south.  Obj. suddenly  &quot;split into 5 pieces,&quot; disappeared!",N/A,2 min.
42.5225362,85.2530589,Dowling,MI,8/21/95,"Woman witnesses two lights in clear night sky.  Colors were red, white, green, and blue.  Moved slowly across sky. (Possible stars?)",N/A,35 min.
43.5406359,70.8481164,Shapleigh,ME,8/20/95,"Mother &amp; daughter witness strange, bright lights, which appear to be moving relative to background stars.  (Facts incomplete.)",N/A,N/A
47.557778,122.977222,Holly,WA,8/20/95,"Daughter, very upset, wakes mother.  Both witness yellow light descend into nearby field.  Two guard dogs very upset, cringe.",N/A,N/A
34.0211224,118.3964665,Culver+City,CA,8/20/95,"Woman hears peculiar roaring sound, goes outside and witnesses &quot;triangular craft&quot; fly overhead.",N/A,5 min.
38.2545737,76.963583,Colonial+Beach,VA,8/20/95,Man and fiancee' witness cigar shaped craft that disappears suddenly.,N/A,N/A
45.48706199999999,122.8037102,Beaverton,OR,8/20/95,"Father &amp; daughter see strange obj. high in sky which &quot;looked like a parachutist drifting.&quot;  Obj. moved E then W, disappeared.",N/A,N/A
33.34876990000001,80.6828713,Bowman,SC,8/20/95,At approximately 4 a.m. I wass sitting at at truck stop off Interstate 26 near Bowman South Carolina doing some paper work.  I noticed,Triangle,5 minutes
41.2381096,81.8418006,Brunswick,OH,8/20/95,large disk shaped object with light beams eminating from it,Disk,30 min
40.3133697,88.9736901,Hayworth,IL,8/19/95,"Man reports 4 peculiar lights in night sky, which are visible on second night.  (Possible stars?)",N/A,N/A
45.2788561,92.9852183,Forest+Lake,MN,8/19/95,Man wakes up w/ 2 strange cuts on cheek.  Recalls recurring dream.  Calls sheriff's office. Sends photos of cuts.,N/A,N/A
42.3222599,83.17631449999999,Dearborn,MI,8/18/95,fire like triangular object  with sapphire blue cloud that pulsated  500 Lights On Object0: Yes,Triangle,1 minute
40.7607793,111.8910474,Salt+Lake+City,UT,8/18/95,"Father &amp; son witness peculiar, silver-colored obj. moving N to S in daytime sky.  Moved very slowly.",N/A,25 min.
39.3677802,94.3621703,Kearney,MO,8/18/95,"Woman repts. witnessing unusual, very bright lights, &quot;like airplane lights,&quot; in vicinity of Smithville, MO.  Had blinking lights, too.",N/A,10 min.
35.4051058,97.1629711,Newalla,OK,8/17/95,Grape size fast moving lights.,Other,2 minutes
48.0818097,121.9689869,Granite,WA,8/17/95,"Woman, son, &amp; neighbor witness &quot;large, oval-shaped bright, magenta light&quot; below clouds.  Light blinked on and off 3x in 2 sec..",N/A,15 min.
46.8236143,100.4152368,McKenzie,ND,8/17/95,"Husband &amp; wife witness strange, red beam of light stream through screened window of mobile home. 10-12&quot; wide.  Very alarmed.",N/A,10 sec.
47.5310941,122.3257361,South+Park,WA,8/17/95,Man witnesses &quot;white spot&quot; flying in formation directly above landing 747 aircraft.  Obj. suddenly streaked off.,N/A,90 sec.
47.6739881,122.121512,Redmond,WA,8/16/95,redmond washington sighting 1995,Unknown,5 minutes
44.4454432,73.099194,Williston,VT,8/16/95,"Man witnesses flash of light in room, looks outside.  Sees an &quot;almond-shaped&quot; obj. in western sky.  Motionless at first, moves.",N/A,N/A
47.2031566,122.2403966,Sumner,WA,8/16/95,"Woman woke up in middle of night, witnesses four bright lights in two formations.  It alarmed her for some reason.",N/A,N/A
41.7605849,88.32007150000001,Aurora,IL,8/16/95,A slow moving craft in triangular shape at about 100 to 200 feet altitude. A series of 3 lights in a trianbular shape under the craft. ,Triangle,5 Minutes
41.2523634,95.99798829999999,Omaha,NE,8/16/95,6 witness saucer gliding over building at close range,Disk,5minutes
47.81194869999999,124.0760795,Hoh+River,WA,8/15/95,"Man driving E along Hoh R. witnesses a bright, silver disc against bright blue sky.  200 yds. from him.  Mil. jets flew by later.",N/A,5 sec.
38.5449065,121.7405167,Davis,CA,8/15/95,"1995 Saucer/cone shaped UFO over I-80 West Causeway Betweeen Sacramento and Davis, CA",Cone,5 minutes
41.7557501,124.2025913,Crescent+City,CA,8/15/95,"Woman &amp; daughter, walking from garage to house, witness sudden yellow streak pass overhead.  Daughter was frightened by it.",N/A,2 sec.
43.9140162,69.9669961,Brunswick,ME,8/15/95,three fire orange colored lights circling a fourth light,Other,30 sec
43.0630734,86.22838639999999,Grand+Haven,MI,8/15/95,"The little creatures, flashing lights, and test.",Unknown,1-2 Hrs.
37.0298687,76.34522179999999,Hampton,VA,8/15/95,Two orange-red dots flying at very high altitude and exhibiting great speed and unusual manueverability.,Other,3-4 secs.
48.276577,116.553465,Sandpoint,ID,8/15/95,"Very large disk shape, many portholes, silver in color, nestled between two hills",Disk,one minute
48.4284207,123.3656444,Victoria+(Canada),BC,8/15/95,"4 lights turned into 6, then turned into V-shape and took off.",Changing,10-15 seconds
35.1982836,111.651302,Flagstaff,AZ,8/15/95,Two craft seen over flagstaff. one craft had a lage ligh come on in the center . . .,Oval,3 minutes
36.2843983,82.1725484,Hampton,TN,8/15/95,I wittnessed a large cigar shaped object pass between clouds,Cigar,5 seconds
34.7604844,84.7223363,Chatsworth+(Fort+Mountain+Community),GA,8/15/95,GEORGIA UFO GROUP REPORT/MUFON of Georgia (joint post):  Fort Mountain teardrop Craft,Teardrop,1 to 1 1/2 minutes
42.87110879999999,97.39728129999999,Yankton,SD,8/15/95,5 white lights coming towards me as flying object,Oval,1-2 minutes
47.2392665,122.3570664,Fife,WA,8/15/95,"Business owner sees &quot;bluish-white ball of light&quot; streaking W to E in S sky.  Orange tail,  gave off sparks.  Very fast, horiz. flt.",N/A,3 sec.
47.4473204,122.4598502,Vashon+Island,WA,8/15/95,Former U.S.Army pilot/policeman sees blue-green disc streak from W to E in S sky. Below clouds. Illuminates them. Exclnt. rept.,N/A,2 sec.
47.1804229,122.9579066,Arcadia+Shores,WA,8/15/95,"Woman witnesses a &quot;quite large ball of light, almost the size of the moon,&quot; streaking across southern sky.  Obj. was round, no tail.",N/A,2 sec.
47.2528768,122.4442906,Tacoma,WA,8/15/95,"Woman &amp; friend see &quot;yellowish, whitish triangular object&quot; suddenly appear in a.m.sky.  &quot;Popped out of nowhere.&quot;  Disappears.",N/A,5 sec.
43.2994285,74.21793260000001,Appalachian,NY,8/15/95,red star like object traveling at very fast speed went across horizon in a matter of 2 seconds or less,Light,2 seconds max.
33.8675143,117.9981181,Cuena+Park,CA,8/15/95,"LIGHT SEEN ON PATIO, SMALL FIGURE SEEN WALKING ON PATIO",Light,1-2 MINUTES
47.6739881,122.121512,Redmond,WA,8/14/95,Re: washington sighting 1995,Light,23:30
47.2528768,122.4442906,Tacoma,WA,8/14/95,Two men witness obj. moving across clear sky.  Appeared to change course overhead from NE to E.,N/A,5 min.
38.0193657,122.1341321,Martinez,CA,8/14/95,Young man reports witnessing &quot;yellow object&quot; moving in sky.  (Facts limited and unclear.),N/A,N/A
45.0051213,122.7831455,Silverton,OR,8/14/95,Triangular_Precision_manuevering_1995,Triangle,5 minutes
47.41,121.405833,Snoqualmie+Pass,WA,8/14/95,"Computer engineer driving on Rte. I-90 witnesses unusual silver, metallic descending rapidly in distance. (Possible A-6E aircraft?)",N/A,10 sec.
47.3223221,122.3126222,Federal+Way,WA,8/14/95,Man sees pecular green light w/ &quot;comet-like tail&quot; streak from W to E 70 degrees above S horizon.  3x size of Venus.  Very bright.,N/A,1 sec.
43.7021922,91.0131863,Coon+Valley,WI,8/13/95,"Couple see a &quot;bright blue, flickering light&quot; through clouds.  Assert &quot;it definitely is moving.&quot;  (Possible celestial body?)",N/A,20 min.
41.8678909,124.1489706,Ft.+Dick,CA,8/13/95,"Woman observes one, 2nd, then 3rd bright red objs. appear in night sky, maneuver, then suddenly disappear.  &quot;Shadows&quot; beneath.",N/A,N/A
47.32926399999999,122.5801293,Gig+Harbor,WA,8/13/95,"Man w/ father-in-law witness a &quot;pulsating object&quot; move across sky from S to N.  15 minutes later, witness similar object.",N/A,15 min
38.0193657,122.1341321,Martinez,CA,8/13/95,"Mother &amp; son see a bright body moving overhead relatively fast.  Larger than star. Color was &quot;auburn yellow.&quot; Other repts., too.",N/A,1 min.
36.1699412,115.1398296,Las+Vegas,NV,8/13/95,Large hovering invisible craft houvering in mid air at least triangle 300 yards.,Triangle,5 minutes
47.6739881,122.121512,Redmond,WA,8/13/95,"Young artist witnesses &quot;round, oval-shaped object&quot; moving across sky very fast from S to E.  Peculiar lights on nose &amp; tail.",N/A,1 min.
43.4197429,85.80005059999999,Newaygo,MI,8/13/95,Large silent sighting in the woods of mid Michigan hovers and disappears.,Chevron,30-45 seconds
41.90460119999999,71.8689917,Putman,CT,8/13/95,"Young woman repts. seeing a disc streak overhead very fast.  Solid light in center, blinking lights around edge.  Called police.",N/A,60 sec.
47.0309979,117.6643694,Lancaster,WA,8/12/95,FAA empl. reports 2 stationary radar returns over Lancaster.  USAF radar confirms returns.  Multiple visual sightitings of 2 obj..,N/A,1 hour
47.6062095,122.3320708,Seattle,WA,8/12/95,"Woman w/ 2 neighbors witness peculiar green lights in, or above, clouds.  At one point, lights appeared to become a &quot;bright beam.&quot;",N/A,30 sec.
26.1420358,81.7948103,Naples,FL,8/12/95,"Man witnesses peculiar, bright obj. streak horiz. from NW to SE.  Called FAA, no pilot reports.  Obj. had &quot;round, bright head.&quot;",N/A,N/A
47.6101497,122.2015159,Bellevue,WA,8/12/95,Young woman reports seeing 2 strange green lights in western sky.  Drift north.,N/A,30 min.
40.2900885,76.9338636,Enola,PA,8/12/95,Bright orange and white fireballs,Fireball,10 seconds
35.1677771,114.5730208,Laughlin,NV,8/12/95,"Small red light, sat in levitation for several seconds, when all viewers focused on light, it vanished.",Light,c.15sec.
48.1987118,122.1251418,Arlington,WA,8/12/95,I was out packing groceries in and I noticed a pink colored glow across the street I went in and put groceries down and went out again ,Triangle,5-10 min.
30.5305987,84.5448693,Interstate+10,FL,8/12/95,4 females camped out on pensacola beach. played in water all the next day and left beach right at sunset. got on interstate 10 going we,Circle,seconds
37.2707022,76.7074571,Willamsburg,VA,8/12/95,A disc that left something.,Disk,45sec.
27.2861589,82.5328753,South+of+Sarasota,FL,8/12/95,"Proximal sighting of shape shifting, falling leaf UFO.",Changing,~5 minutes
26.4520248,81.948145,Fort+Myers+Beach,FL,8/12/95,"Woman witnesses &quot;meteor shower&quot; over G. of Mex..  Minutes later, sees very bright light streak overhead at very low altitude.",N/A,N/A
38.5815719,121.4943996,Sacramento,CA,8/11/95,"Multiple cars reported to stop on I-80 to witness oblong, silver obj. to east.  Sunlight glinting off obj.. 20 witnesses. Streaks off.",N/A,2 min.
47.1853785,122.2928974,Puyallup,WA,8/11/95,"Man went outside to smoke, witnesses peculiar light pass overhead very fast.  Appeared to move south, but suddenly turned.",N/A,1 min.
45.48706199999999,122.8037102,Beaverton,OR,8/11/95,"Woman sees large bluish-white light streaking below clouds.  Suddenly turns right, disappears from sight.",N/A,15 sec.
37.8043637,122.2711137,Oakland,CA,8/10/95,"Couple walking witness &quot;round, strange black spot to left of moon.&quot; Suddenly approaches.  Square bottom, dome on top.  &quot;Bounces.&quot;",N/A,N/A
37.82275509999999,112.4357638,Panguitch,UT,8/10/95,"5 or 6 &quot;Stars&quot; zigzagging around the Ursa Major.Observed by 41 year old male and 40 year old female, both of us stone cold sober.",Light,10 minutes
53.600786,113.423239,Northern+Alberta+(Canada),AB,8/10/95,Vee shaped craft flew low over campfire where  women were sitting.,Chevron,4/5 minutes
36.7468422,119.7725868,Fresno,CA,8/9/95,"Couple witness multiple red/purple globular objects, &quot;the size of cantaloups,&quot; moving across yard!  Witnessed 10 objects at once!",N/A,15 min.
32.2217429,110.926479,Tucson,AZ,8/8/95,Man witnesses &quot;blimp w/ reddish &amp; yellow lights&quot; in sky SW of Tucson.  (Detailed data not provided.),N/A,30 min.
38.2881186,81.810532,Alum+Creek,WV,8/8/95,Alum Creek,Unknown,do not know
38.3686324,93.7782689,Clinton,MO,8/8/95,"Son wakes mother to observe peculiar pulsing red, blue, yellow lights positioned in row.  Obj. appears to eject colored light.",N/A,15 min.
45.3573429,122.6067583,Oregon+City,OR,8/8/95,"Former U.S.Army officer (Ph.D.)  reports strange cluster of lights, &quot;like Christmas lights,&quot; moving overhead.  Neighbor sees object.",N/A,30 min.
27.9658533,82.8001026,Clearwater,FL,8/8/95,"Two men fishing witness &quot;meteor shower.&quot;  Then see many objects streaking, maneuvering very fast. Approach boat.  Men alarmed.",N/A,2.5 hrs.
45.5230622,122.6764816,Portland,OR,8/8/95,"Woman witnesses round, black, disc-shaped craft rise out of Pier Park (?).  Looked &quot;like obsidian.&quot; Dark, but reflected street lights.",N/A,10 sec.
40.3083174,105.0810924,Berthid,CO,8/7/95,"Father &amp; son witness multiple  stationary red, green, white lights in sky.  Then witness six more. (Facts incomplete.)",N/A,3 hrs.
35.1495343,90.0489801,Memphis,TN,8/7/95,"6 witnesses, one goes into complete denial, occurs in a populated urban environment.",Disk,2-3 minutes
35.3732921,119.0187125,Bakersfield,CA,8/7/95,Bakersfield  (newspaper) publishes front-page photo of peculiar flaming disc w/ tail.  No explanation provided.,N/A,N/A
35.3732921,119.0187125,Bakersfield,CA,8/7/95,"Boy reports seeing two large obj. w/ red, green, and white lights maneuvering overhead, making sudden sharp turns.",N/A,90 min.
35.3732921,119.0187125,Bakersfield,CA,8/6/95,"Young man reports large obj. moving over city, dips below trees nearby, changes colors.  Other smaller objects nearby.",N/A,N/A
42.2917069,85.5872286,Kalamazoo,MI,8/6/95,"2 women driving 15 miles SE of city, encounter huge disc hovering almost motionless.  Red, white, blue lights.  Pain, marks on skin.",N/A,5 min.
45.655049,69.6506172,Moosehead+Lake,ME,8/6/95,"USAF crew chief (ret.) &amp; 2 nephews witness huge cigar-shaped obj. move across sky from E to W.  Had strange, triangular lights.",N/A,10 min.
39.5296329,119.8138027,Reno,NV,8/6/95,dull orange group of craft maneuvering and rotating arround each other in the sky over reno,Formation,1 minute
35.3732921,119.0187125,Bakersfield,CA,8/6/95,"Couple witness very bright obj. streak overhead to SW horizon.  1/4 size of moon.  Very fast.  White in center, yellow fringe.",N/A,5 sec.
35.3732921,119.0187125,Bakersfield,CA,8/6/95,"Many individuals report multiple objects in formation moving, zigzagging  in sky above city.  Had red, green, &amp; white lights.",N/A,8 hrs.
47.03426289999999,122.8231915,Lacey,WA,8/6/95,Woman awakend from deep sleep &quot;by explosion.&quot; Saw flash of bright light in &quot;upper right part of bedroom window.&quot; Couldn't move.,N/A,1 minute
37.48521520000001,122.2363548,Redwood,CA,8/6/95,"Couple witness very bright light in W sky descend, disappear from sight.  Appeared to have multiple different, discrete colored lights.",N/A,45 min.
45.9045591,122.7439912,Woodland,WA,8/5/95,"Woman &amp; daughter witness strange, very bright, green obj. streak in E sky.  &quot;As big as moon.&quot;  Seen twice by others previous week.",N/A,2 sec.
45.6966257,90.4004296,Phillips,WI,8/5/95,Field and woods light up by a red light that has no source. Light seems to scan area for about a minute. Object turns lights on and lan,Unknown,3 minutes
45.9045591,122.7439912,Woodland,WA,8/5/95,"Husband &amp; wife witness strange, bright light in night sky.  Other reports in area for same night.  (Facts unclear.)",N/A,N/A
32.8383828,116.9739167,Santee,CA,8/5/95,"The object was in the form of a light, silently traveling from north to south, dissappearing from view without acceleration.",Light,15 seconds
37.7478572,84.2946539,Richmond,KY,8/5/95,"While on the back deck watching for shooting stars an object shoot across the sky and stopped suddenly in mid air, a second object appe",Other,35 min.
47.76095,122.2055883,Bothell,WA,8/4/95,"MUFON member observes w/ binoculars &quot;ivory-colored object, wingless&quot; descend into trees in vicinity of FEMA facility.",N/A,N/A
38.440429,122.7140548,Santa+Rosa,CA,8/4/95,Man reports witnessing unusual object against mountains to E of city. (Facts unclear),N/A,N/A
48.05823100000001,123.8131963,Crescent+Lake,WA,8/4/95,"Several family members see very peculiar flashing, lights in night sky overhead.  Yellowish, white color.  Zigzagged, disappeared.",N/A,20 sec..
38.5815719,121.4943996,Sacramento,CA,8/4/95,"Woman watching satellite, sees small, round ball moving across the sky.  Ran around corner of bldg. to follow obj., but was gone.",N/A,4 min.
42.7653662,71.46756599999999,Nashua,NH,8/4/95,No lights...just &quot;void&quot; or black and no sound as it went by...couldnt make out if it was a rectangle or triangle.,Rectangle,4 minutes
47.2150945,123.1007066,Shelton,WA,8/4/95,"Man witnesses strange &quot;green flash, about the size of a nickel.&quot; (At arm's length?)  Flash may have had a &quot;white outline.&quot;",N/A,1-2 sec.
45.6318397,122.6716063,Vancouver,WA,8/4/95,"Son wakes mother; both witness clump of bright, white lights overhead in formation.  &quot;Like clump of stars.&quot; Obj. streaks off.",N/A,3 min.
47.8209301,122.3151313,Lynnwood,WA,8/4/95,"Man witnesses 5  very luminous, &quot;crescent-moon shapes&quot; pass overhead.",N/A,N/A
47.6101497,122.2015159,Bellevue,WA,8/4/95,Two men witness &quot;round object w/ flame trail&quot; descend out of sky.  Color was &quot;white w/ slight fire color.&quot;  Very large.,N/A,10 sec.
45.67150549999999,122.6628755,Hazel+Dell,WA,8/4/95,"Man reports witnessing strobe light in sky, then go dim. (Tumbling satellite?)",N/A,90 sec.
39.7294319,104.8319195,Aurora,CO,8/3/95,Mother &amp; daughter hear strange &quot;rattling&quot; sound.  Witness small saucer-shaped craft descend &quot;like feather.&quot;  Red &amp; yellow lights.,N/A,N/A
47.8209301,122.3151313,Lynnwood,WA,8/2/95,"Couple witness a large blue-green obj. streak downward in eastern sky.  Looked &quot;like comet w/ tail.&quot;  Expected explosion, but none.",N/A,3 sec.
32.2686981,107.7586404,Deming,NM,8/2/95,"Man sees TV coverage of obj. over Salida, CO (27AU95).  He and many other bus riders W of Deming, NM, saw same object!",N/A,30 min.
48.2410895,122.3706837,Stanwood,WA,8/2/95,"MUFON member captures streaking disc, or &quot;cigar,&quot;  on video tape.  Obj. appears to transform into sphere.  Convincing tape.",N/A,1 sec.
25.7826123,80.1340772,South+Beach,FL,8/1/95,Three round lights attached in a triangle shape. Making raped 90 degree movements,Triangle,3 min
47.6062095,122.3320708,Seattle,WA,8/1/95,"Woman, cousin, and neighbors witness large, very bright obj. descend rapidly in SW sky. &quot;1/2 size of moon.&quot; Large tail, left trail.",N/A,1-2 sec.
47.2528768,122.4442906,Tacoma,WA,8/1/95,Woman and landlord witness &quot;two boxes connected at one corner&quot; drifting north.  Faint reddish color.  Witness alarmed by sighting.,N/A,60 sec.
30.4393696,97.62000429999999,Pflugerville,TX,8/1/95,orange globe dims and out runs F 4,Sphere,10 min
34.6645442,95.5008093,Jack+Fork+Mountains,OK,8/1/95,most pepole disbelve but if you would just take time out to star gaze you would be shaeken for what you might see,Light,1hr
36.1699412,115.1398296,Las+Vegas,NV,8/1/95,"three bright light's, no sound, about a foot ball field away",Flash,five minites
37.3021632,120.4829677,South+East+Merced,CA,8/1/95,"Large silent rotating diamond, largeer than a B-52, Supended as thou they were looking at me when i saw no mentally they left, the craf",Diamond,5 min
34.1898566,118.451357,Van+Nuys,CA,8/1/95,"I saw this craft, it sounded like an airplane flying overhead at first, and it was shaped like a stick-figure bird (silver).  I lived o",Changing,5 mins.
39.8864493,83.4482529,London,OH,8/1/95,Interaction with 1 of 3 objects in the direction of Wright Patterson AFB.,Teardrop,30 minutes
27.3364347,82.53065269999999,Sarasota,FL,7/31/95,Man driving on I-275 sees 3 subdued lights in triangular pattern moving to N.  Very strange appearance &amp; manner of flight.  Disappear.,N/A,N/A
40.83959220000001,74.4818698,Morris+Plains,NJ,7/31/95,"Dentist, neighbor, 3 police observe bizarre, bright light flying wing-shaped craft &quot;w/ red, green, &amp; white bubbles.&quot; Exclnt rept.",N/A,3.5 hrs.
34.2819461,118.4389719,San+Fernando,CA,7/30/95,"Second call from two men witnessing multiple craft streaking across sky.  Obj. are disc-shaped, w/ blue &amp; red lights on edge.",N/A,30 min.
35.9556923,80.0053176,Highpoint,NC,7/30/95,Man sitting on lawn hears obj. pass overhead very fast.  Distinct humming tone.  Repts. it sheared limb off tree.,N/A,2 sec.
41.4141172,73.3035651,Newtown,CT,7/30/95,Man &amp; wife witness two sightings of an obj. moving across sky very fast.,N/A,30 sec.
44.9369054,91.39293479999999,Chippewa+Falls,WI,7/30/95,We saw a large craft that had a ring of lights on the bottom that disappeared straight up in the sky.,Circle,5 min.
39.2903848,76.6121893,Baltimore,MD,7/30/95,"Woman repts. seeing strange, bright obj. moving back &amp; forth, moving in circles.  Streaks to north out of sight.",N/A,5 sec.
34.0676715,78.1483283,Bolivia,NC,7/30/95,NC Emer. Commo.Cntr. repts. 2 police officers reporting strange lights in sky near Goose Creek area.,N/A,10 min.
34.2819461,118.4389719,San+Fernando,CA,7/30/95,"Man repts. multiple sightings of strangely lighted craft hovering, then streaking overhead in clear sky.  Some w/ subdued lights.",N/A,3.5 hrs.
45.5230622,122.6764816,Portland,OR,7/29/95,MUFON investigator reports her mother witnessed four discs in formation over Portland.,N/A,N/A
