lat,lng,city,state,date,specs,shape,duration
43.3719678,83.58329169999999,Vassar,MI,12/30/91,zigzag beeping object,Circle,30 seconds
43.3361323,85.8108819,Grant,MI,12/24/91,"There was one circle shaped object in the sky by a tree in the back yard,  It had lights all around it. I left the room to get my husba",Circle,3 Minutes
40.96751099999999,99.0864775,Pleasanton,NE,12/23/91,"Small orange fluorescent object seen S in distance, disappears, then rushes vehicle in northerly direction, narrowly missing windshield",Sphere,7 minutes
32.8406946,83.6324022,Macon,GA,12/20/91,"saucer shaped soundless object hovering with rectangular lights going around; as soon as on would go off, the other would come on,",Disk,2 min's
37.9514447,86.76776629999999,Tell+City,IN,12/14/91,bright light lit up the woods 5am while hunting.  ((NUFORC Note:  Possible meteor??  PD)),Circle,30 sec.
35.3234065,84.5249307,Etowah,TN,12/13/91,"I was looking at Star Mountain when these 3 objects appearred. As I watched them, they seemed to change shape. Then as I watched for a ",Changing,looking at mountains
42.9633599,85.6680863,Grand+Rapids,MI,12/10/91,"hugh  triangulation of  lights,nine in all,traveling with stunning cooperation and velocity,all rotating,silently and quick!",Other,3.5 seconds
34.1494848,118.5506158,Tarzana,CA,12/5/91,"'91, SF Valley. 5 small, bright, low-flying red spheres, followed fwy traffic: melded together from 5-3-1-2-4 total. West-to-East",Sphere,3.5min
41.0875099,81.63638689999999,Copley,OH,12/1/91,Rearview Lights,Light,3 nours
42.5294773,83.7802214,Brighton,MI,11/27/91,"Large object with two bright lights, passed overhead silently. Half-circles connected by rectangle.",Circle,1-2 minutes
37.6455993,91.53598079999999,Salem,MO,11/23/91,The craft hovered above car for 3 to 5 minutes staying directly 30-50 feet in front of the car above the road.  Lowed itself infront of,Triangle,22:05
36.5042277,88.8742259,Fulton,KY,11/20/91,1991- seen a light zip out of sight with out a sound.,Light,5 Min.
49.895136,97.13837439999999,Winnipeg+(Canada),MB,11/20/91,Beautiful ball of light instills awe,Light,unsure
27.7003087,80.9042283,Yeehaw+Junction,FL,11/20/91,Silver triangular craft hovering over highway,Triangle,15 minutes
38.8338816,104.8213634,Colorado+Springs,CO,11/18/91,triangle craft. one moving glowing blue at 250ft. The other hovering off a busy street . same altitude.3 wht lights 1 red center,Triangle,5min
29.6910625,95.2091006,Pasadena,TX,11/15/91,UFO sighting in Pasadena TX in November 1991.,Unknown,5-10 minutes
38.8338816,104.8213634,Colorado+Springs,CO,11/15/91,"Clear night, calm winds, object triangular, blue glow emanating all around, flying at250 to 500 feet north to south direction no noise ",triangle,5 min
30.42130899999999,87.2169149,Pensacola,FL,11/15/91,Metallic disc hovers near road in northeast pensacola,Disk,approx. 20 mins
28.5552719,82.3878709,Brooksville,FL,11/12/91,"just got in bed saw a bright light that complety lit up entire 50 acre lake also heard loud whistle,by the time my wife and i could get",N/A,2mins
37.6455993,91.53598079999999,Salem,MO,11/10/91,Triangular-shaped object witnessed by two people at close range.,Triangle,3-5 minutes
37.6455993,91.53598079999999,Salem,MO,11/10/91,Triangular-shaped object hovers 30 to40 feet above car for five minutes.,Triangle,5 minutes
33.7212179,85.1455036,Bremen,GA,11/1/91,My TV went off and I felt that something or someone was &quot;fooling&quot; with me and watching me,Disk,2-3 minutes
41.9867114,83.8310513,Britton,MI,11/1/91,"A large, low-hovering (not moving) craft with colored strobing lights around the bottom and it made no noise.",Triangle,5 Min
41.8297694,86.2541768,Niles,MI,11/1/91,Triangle zigzagged.  Another shined light on us. Others jetted to horizon.,Triangle,2 hours
40.1439985,75.1157286,Willow+Grove,PA,10/31/91,Huge &quot;V&quot; shape craft as seen before over mountains in California/Las Vegas.,Other,5 sec
40.0156763,105.3243725,Boulder+(10+miles+west),CO,10/31/91,"Two glowing translucent spheres chasing and playing &quot;tag&quot; in the trees, one landed, one flew away.",Circle,30 to 45 seconds
34.0522342,118.2436849,Los+Angeles,CA,10/28/91,"It was a clear, sunny day. My friend and I went for a neighborhood walk.  It was early afternoon.  My friend first noticed 3 round whit",Circle,15 minutes
46.7458117,67.6977721,Perth-Andover+(Danada),NB,10/15/91,"Reddish-orange sphere bigger than a full moon came out of nowhere, hung briefly, than zipped off toward the west.",Sphere,5-8 seconds
32.7178862,100.9176184,Snyder,TX,10/15/91,Round disk with lights,Disk,5 minutes
35.2298559,75.63248759999999,Frisco,NC,10/10/91,A friend and myself were standing on the shore of the Pamlico sound as we observed 4 objects moving in up and down motions for about 30,Unknown,30 minutes
40.2731911,76.8867008,Harrisburg,PA,10/10/91,We observed 3 triangular shaped high speed objects!,Triangle,10 minutes
40.9508614,105.3462273,Virginia+Dale,CO,10/7/91,"Four nocturnal lights, one winks out, deer appears.",Light,2 minutes
34.7048022,85.2818998,Lafayette,GA,10/1/91,A small globe descended from beneath the larger craft.,Other,15 min.
36.1699412,115.1398296,Las+Vegas,NV,10/1/91,For seven years I have kept this fairly quiet. I was walking my dog on a clear dark night where I live on the north west side of Las Ve,Cigar,5 seconds
36.1325616,88.5186636,McKenzie,TN,10/1/91,"I saw a saucer shaped obiect with blue, red, green flashing lights on the way home from college.",Disk,15 minutes
40.8509333,73.9701381,Fort+Lee,NJ,10/1/91,A blimp shaped object with low lighting or shimmering effect outline hovering next to the G. W. Bridge over the Hudson River.,Unknown,5 minutes
34.7464809,92.28959479999999,Little+Rock,AR,10/1/91,"Triangular arrangements of lights appearing to begin to land on freeway, miltary-ish cars mobilze around it",Triangle,5 minutes
35.7564719,83.9704593,Maryville,TN,10/1/91,"Silver, cigar shaped object north of downtown Maryville, TN in or around 1991",Cigar,5 minutes
33.7857948,118.2643567,Wilmington,CA,10/1/91,Patterned disks over southern california sky.,Circle,15 minutes
34.829838,82.6015206,Easley,SC,10/1/91,Hockey-puck-shaped-thing.,Other,fifteen minutes
29.8832749,97.9413941,San+Marcos,TX,9/27/91,Giant V-Shaped Craft,Triangle,6-8 minutes
34.6834382,82.8373654,Clemson,SC,9/25/91,"Traingular craft, with a circle in it's center,.  circular lights in the circle that rotated.",Triangle,2 minutes
40.3059999,121.0057931,Westwood,CA,9/23/91,a bright tube of light resembling an elevator shaft descended from the light object to the ground and then returned.,Light,30-45 minutes
46.52185799999999,84.3460896,Sault+Ste.+Marie+(Canada),ON,9/21/91,strange triagle,Triangle,3 min
45.5016889,73.567256,Montreal+(Canada),QC,9/18/91,Black Triangle over Montreal,Triangle,about one minute
47.0378741,122.9006951,Olympia,WA,9/18/91,"Single star morphs into Hoberman Sphere, rotates, reverts, turns red, divides, flies away in formation",Changing,2 to 3 minutes
34.2542084,110.0298327,Show+Low,AZ,9/17/91,3 lights &quot;disguised&quot; as a plane,Formation,10 seconds
34.9803342,101.9188024,Canyon,TX,9/15/91,((HOAX??))  I have not been compelled to report this incident until a few days ago to the MUFON website. ((anonymous report)),Fireball,15 minutes
35.2339712,92.387655,Greenbrier,AR,9/15/91,Orange or amber balls or orbs of light multiplying and maneuvering beyond known and current aircraft abilities,Light,21 years
45.5230622,122.6764816,Portland,OR,9/15/91,It was a long cigar shaped object; no way its some thing we built.,Cigar,1 minutes
35.0526641,78.87835849999999,Fayetteville+(near),NC,9/14/91,Fast moving object that would just stop and then dart off and then just stop again.,Light,10 minutes
47.48287759999999,122.2170661,Renton,WA,9/12/91,At 7:35 P.M. this evening I witnessed an object traveling from S.E to N.W.  It appeared to be similar to a &quot;shooting star&quot; with a brigh,Fireball,5-10 MINS.
46.4004089,117.0011889,Lewiston,ID,9/10/91,A large panning light that would move from position to position faster than seemily possible.,Light,A half an hour
54.4425721,124.2510475,Fort+St.+James+(Canada),BC,9/8/91,HBCCUFO CANADIAN REPORT:  The light grew brighter and brighter and it was engulfing the vehicle..,Other,unknown
42.5878489,76.3668792,Groton,NY,9/5/91,"My sister and  I saw a  massive, silent, v-shaped formation of bright white lights fly directly overhead.",Triangle,2 sec.
37.1305012,121.6543901,Morgan+Hill,CA,9/2/91,We witnessed about 12 black objects pass overhead at night.,Unknown,30 min
42.4390069,123.3283925,Grants+Pass,OR,9/1/91,Light appeared over mountain,Light,8 hrs
32.8440404,106.099291,Alamagordo+(Holloman+AFB),NM,9/1/91,We were out side talking.  I noticed a star that was orange. Then it began to move at speeds and G's thats humans can't handle.,Oval,3 minutes
42.338913,71.067945,Boston+(above),MA,9/1/91,"The object was absolutely solid as I observed it, but appeared to fly thru the windows.",Circle,20 to 30 secnds
38.6270025,90.19940419999999,St.+Louis,MO,9/1/91,Witnessed a black rectangle go over our house...,Rectangle,3 minutes appox.
46.2619033,120.8489815,Yakama+Indian+Reservation,WA,9/1/91,"large, lighted rectangular stationary object was observed for 1 &amp;1/2 hrs, as it sank out  of sight.",Rectangle,One and 1/2 hr.
46.2619033,120.8489815,Yakima+Indian+Reservation,WA,9/1/91,"A square shape of 16 colored lights observed for 90 minutes through forest trees on Sept 1, 1991.",Other,90 minutes
38.6270025,90.19940419999999,St.+Louis,MO,9/1/91,Sitting in the backyard reading when I noticed a dark shape against the clouds...again!!,Rectangle,1min approx
36.1539816,95.99277500000001,Tulsa,OK,9/1/91,It was the size of a football field.,Rectangle,15 minutes
33.8026107,93.38100569999999,Prescott,AR,9/1/91,"Un like other incounters I have read about,  The ship I saw was landed",Sphere,2hrs
49.8879519,119.4960106,Kelowna+(Canada),BC,9/1/91,My husband and I were on a holiday in Kelowna B.C staying on the top floor (5th) at The Queen Anne Hotel in the old section of town. We,Unknown,approx 1 hour
32.4487364,99.73314390000002,Abilene,TX,9/1/91,Swaying round light at rooftop height between 2 houses and right above--a huge triangular black object--no sound. 500 Lights On Obj,Triangle,10 Minutes
41.2619444,95.8608333,Council+Bluffs,IA,8/31/91,Daytime sighting of a black stationary tube that looked like UFO from Star Trek Movie with the whales.,Cylinder,5 min
36.4169007,120.6743379,New+Idria,CA,8/29/91,Two silent perfect equilateral triangle craft observed for atleast 150 minutes at New Idria CA.,Triangle,150 minutes
44.7308461,116.0772125,Donnelly,ID,8/29/91,"When there is an animal mutilation, what can you hear?",Unknown,1/2 hour
42.887535,77.2816984,Canandaigua,NY,8/28/91,It was a white sphere and it was keeping pace with my car,Sphere,15 minutes
46.5475825,87.39559539999999,Marquette,MI,8/25/91,Second and Third witness to report.,N/A,3 sec
40.5795317,74.1502007,New+York+City+(Staten+Island),NY,8/24/91,"it was the most amazing thing i have ever seen, but i dont remember what happened.",Egg,?
35.5950581,82.5514869,Asheville,NC,8/22/91,"Yellow/Redish colored UFO on the Blue Ridge Parkway in Asheville,NC.",Oval,5 minutes
45.4056589,64.32588740000001,Parrsboro+(Canada),NS,8/20/91,Very large regtangular object blocking out the stars with an almost inaudible but loud sound?,Rectangle,30 - 60 minutes
38.9822282,94.6707917,Overland+Park,KS,8/20/91,It was on a Saturday or Sunday afternoon and I was going on my break from work when I got into my car and my boss Bill started talking,Disk,3-5 min
42.1162217,70.8476708,Hanover,MA,8/16/91,A bright light moving erraticlly toward us was then was chased by two fighter jets.,Light,20 min +/-
35.1830854,111.6549649,Arizona+(northern),AZ,8/16/91,the alien stood there in a form I could be comfortable with while looking at him.,Other,20 seconds
46.5475825,87.39559539999999,Marquette,MI,8/15/91,"I was on the second floor deck, looked up for stars, craft went right over me, just above tree tops, no lights, covered mile to power c",Egg,seconds
41.6639383,83.55521200000001,Toledo,OH,8/15/91,A point of light moving in a very unconventional flight path.,Light,less than a minute
37.7862059,82.7934937,Hagerhill,KY,8/15/91,"No words to explain it or prove it,but really was something to see.",Cigar,30seconds
37.1229997,120.2601754,Chowchilla,CA,8/15/91,"When I was 16 years old I worked on my Dad&#8217;s vineyard. The ranch was a large ranch, almost 1000 acres, and was out in the middle of now",Disk,3 days
40.7536528,86.0688811,Peru,IN,8/15/91,UFO - 15 feet away and scared to death.,Egg,15 minutes
45.5016889,73.567256,Montreal+(Canada),PQ,8/11/91,"HBCCUFO CANADIAN REPORT:  A cube, or rectangular is shape and charcoal in color.",Rectangle,approx 1 minute
40.8664873,73.0356625,Selden,NY,8/10/91,Large Light Sighted Over Long Island NY,Light,30 seconds
42.802808,83.0129874,Romeo,MI,8/7/91,Glowing light hovering and rising slowly then shooting across dky.,Light,2-5 minutes
45.373615,121.695951,Mt.+Hood,OR,8/5/91,"I saw a round object in a controlled fall from the sky, the  obje went behind some clouds and did not reappear in its fall.",Circle,3 seconds
41.6639383,83.55521200000001,Toledo,OH,8/1/91,track pattern of lights,Other,4-5 minutes
33.4956744,88.4272627,Columbus,MS,8/1/91,Two people view triangular hovering object.,Triangle,10-15 min
28.2919557,81.40757099999999,Kissimmee,FL,8/1/91,"saw two squares moving together over Kissimmee, saw a red light moving incredibly fast over Orlando",Other,30 seconds
22.0881391,159.3379818,Kapaa,HI,8/1/91,I was awakened by mercury vapor (orangish) light that illuminated about 2 acres of rural Kauai where there are no street lights. I atte,Unknown,4-5 min.
40.9645293,76.8844101,Lewisburg,PA,8/1/91,Bright light chased by helicopter,Light,2 minutes
33.2470567,95.8999656,Commerce,TX,8/1/91,spoked wheel flies in front of the moon,Circle,2 minutes
41.3838782,72.9026064,Hamden,CT,8/1/91,"Object appearede as a bright light on horizon line then it moved toward us, we knew then it was not a plane.",Triangle,15 minutes
44.26946119999999,83.5146973,Tawas+City,MI,8/1/91,"Close encounter on Monument Rd., Tawas City.  Near Corsair.  Craft nearly filled the sky between the pines.  Very large, very close.",Oval,1 minute
26.1836854,98.1230638,Alamo,TX,7/20/91,Eclipse or UFO?,Circle,unkown
43.4153039,84.0563662,Shields,MI,7/20/91,"2 incidents, 5 min. apart(approx.) bright light hovering, about 300 ft. above, then fastest 90&#176; turn/and speed we ever saw .",Light,:05
38.7828437,84.6052206,Crittenden,KY,7/20/91,silent   triangular shaped craft hovers  over me on ky I-75  in summer of 91,Triangle,30sec
36.8529263,75.97798499999999,Virginia+Beach,VA,7/19/91,"dark triangular craft, white lights on corners, red light center underneath followed by a smaller, disk shaped craft, white lights arou",Triangle,1 minute
36.1699412,115.1398296,Las+Vegas,NV,7/18/91,"a huge shadow appeared out of nowhere, revealing a enormous boomerang shaped object. 500 Lights On Object0: Yes",Other,2 hrs
48.86384400000001,123.6457977,Crofton+(Vancouver+Island)+(Canada),BC,7/15/91,"My mother says she went out to put the horse in, and she saw a flash, looked up and saw 4 groups of lights flying in formation fly over",Formation,10-15 secs
40.8044833,90.4017954,Abingdon,IL,7/15/91,i couldnt believe we were seeing this thing right above us.it was very spooky!,Egg,4 minutes
33.4520535,97.76669989999999,Sunset,TX,7/15/91,string of lights silently passes over rural house,Light,3 minutes
41.3661614,81.8543026,Berea,OH,7/15/91,"Very low flying triangle with lights on the corners, large purple flash in the center, two witnesses",Triangle,under 5 minutes
47.7166836,104.1563253,Sidney,MT,7/15/91,Triangle or V of lights traveling fast and low with no sound at all.,Triangle,3-4 Seconds
29.7604267,95.3698028,Houston,TX,7/15/91,Two witnesses observed triangular object made of hazy greenish lights speeding back and forth across the horizon.,Triangle,45 minutes
34.1477849,118.1445155,Pasadena,CA,7/15/91,Rose Bowl Disks,Disk,6-8 seconds
33.9204354,80.3414693,Sumter,SC,7/15/91,Classic saucer shaped object overhead at midday.,Disk,N/A
33.1972465,96.6397822,McKinney,TX,7/15/91,"Large string of light move slowly from west to east, very low and silent",Unknown,10 Minutes
37.8388779,120.2308167,Grove+Land,CA,7/13/91,"Lost time ,dreams,them.",Sphere,3 min
44.6365107,123.1059282,Albany,OR,7/11/91,three black egg shapes,Egg,10-15 minutes
48.4284207,123.3656444,Victoria+(Canada),BC,7/10/91,Then I defiantly saw a melon sized ball of white light pass us traveling faster than I thought possible.,Sphere,15min
42.6864471,78.97972709999999,Derby,NY,7/9/91,"Metalic triangle with crimson light in center, hovered very slowly and noislessly over the trees and then came around in an arc and dis",Triangle,5 minutes
30.267153,97.7430608,Austin,TX,7/8/91,Huge blasts of spinning lights (3) scanned at least an acre of land until they zeroed in on us and chased us under a tree where we hid.,Triangle,6 min.
42.13065539999999,71.0411582,Avon,MA,7/7/91,"Around dusk, Istood outside of my home, and observed a light in the sky. During the time it took me to smoke a cigarette, this object c",Triangle,15-20 minutes
43.4367466,71.1722886,New+Durham,NH,7/7/91,Close encounter over Merrymeeting Lake,Sphere,30 seconds
44.7340108,122.1497982,Detroit,OR,7/5/91,"small flash, streak of light, light stopped, then went other way slowly.",Light,30 sec
47.91287560000001,122.0981848,Snohomish,WA,7/5/91,"I went insane for a week, something had awoken inside me. I strongly believe I am a half breed grey. ^.^ I strangely meet people who ca",N/A,:30
37.68717609999999,97.33005299999999,Wichita,KS,7/4/91,"It was summer, I had my dauther who is now 17. I was at my father in law house looking trought the back door, wich has an open view so",Disk,MORE THAN AN HOUR
38.2382474,122.040244,Suisun+City,CA,7/4/91,"A bright red ( round dot circle bubble luminous) UFO sphere splits into two, then travels in opposite directions after splitting",Circle,30min
40.4933728,90.04872840000002,St.+David+(near),IL,7/1/91,flying triangle in fulton county illinois (1991),Triangle,3-4 mins.
45.33772829999999,93.56911219999999,Elk+River,MN,7/1/91,"Basketball sized orb of light, burst with intensity after about 2 minutes then disappeared.",Light,2 minutes
41.012833,81.6051221,Barberton,OH,7/1/91,Star like UFO hovers and then zooms across the sky.,Circle,10 minutes
42.762257,84.89638149999999,Mulliken,MI,7/1/91,"On the night of a meteor shower around 6-8 years ago from this date, a friend and I witness what we believe was 4 unidentified spacecra",Disk,22:05
41.2523634,95.99798829999999,Omaha,NE,7/1/91,"Silver disk flies level across sky, at low altitude, before dusk.",Disk,6-10 minutes
29.7604267,95.3698028,Houston,TX,7/1/91,Two multicolored stationary distant lights in sky,Light,1 hour
40.9125992,73.8370786,Mount+Vernon,NY,7/1/91,I was at action park in mount vernon New Jersey in the wading pool And was looking up for the blue skies. What I say Was the 3 Ships mo,Disk,7 minutes
40.8759235,75.7324127,Maunk+Chunk,PA,7/1/91,BRIGHT LIGHT SHINED ON US  IN OUR BOAT GONE IN SECONDS OVER MOUNTAIN,Light,10 minutes
42.2175668,78.2752927,Cuba,NY,7/1/91,"My wife and I were driving home to Jamestown NY where we lived at the time from her parents in NJ traveling west on Route 17, she was d",Triangle,10 minutes
40.543183,76.2297454,Hawk+Mountain+(Boy+Scout+Camp),PA,7/1/91,"We were at camp,up in the sky something cought our eye,it was a light.It didn't move for about 15min, just hung there with no noise, an",Light,20 min
44.377972,83.8047965,Hale,MI,7/1/91,"Hovering UFO, Bright white spear shape, no sound, extreme speed, green exhaust beam",Sphere,2 minutes
41.5034271,74.0104178,Newburgh,NY,6/30/91,very low flying diamond making no sounds,Diamond,5 mins
32.7947731,116.9625269,El+Cajon,CA,6/30/91,"Those sightings of orange /red lights in the sky have been happening for years now, just much more frequent lately.",Diamond,2 minutes
48.4106373,114.3352652,Whitefish,MT,6/30/91,"Flying Saucer from north (Canada) descends on Whitefish, Montana, hovers silently, gone like a bullet.",Disk,15minutes
38.2593806,120.7634852,Paloma,CA,6/30/91,I believe what we witness was a opening to a worm hole or a fold in space,Chevron,20 min
40.6409347,74.881278,Annandale,NJ,6/30/91,Unknown bright light object,Unknown,30 secs-1min
40.0186921,78.50390689999999,Bedford,PA,6/30/91,"1991 - Bedford, Pa-Triangular-3 Red Lights-Ship rotated to it's side-20-25 minutes",Triangle,20-25 minutes
38.2775702,85.7371847,Jeffersonville,IN,6/25/91,UFO AERIAL PHENOMENOM SIGHTING IN EARLY 90's; FAST MOVING DISAPPEARING,Circle,Few minutes
48.361262,119.5833869,Okanogan,WA,6/25/91,"Silver disk sighted hovering &amp;  moving slowly 0.5-1.0 mile above the ground in the area of Okanogan, WA.",Disk,2-3 Minutes
40.5998931,73.74484369999999,New+York+City+(Far+Rockaway)+(Queens),NY,6/23/91,22:00 hrs far  rockaway  n.y.,Other,1hr
39.158168,75.5243682,Dover+(near),DE,6/20/91,1991 dover delaware.  triangular craft,Triangle,3-4 hours
44.350193,80.248215,Singhampton+(Canada),ON,6/15/91,Mother Ship?,Rectangle,1 minute
36.7417235,88.6367154,Mayfield,KY,6/15/91,"Triangle Shaped object, Glowing red outline.",Triangle,15 Seconds
29.6516344,82.32482619999999,Gainesville,FL,6/15/91,Nighttime sighting. UFO was on the ground. Occupant sighted. Did not stay long.,Other,3 minutes
33.660297,117.9992265,Huntington+Beach,CA,6/15/91,Round all silver circle with black dots on inner edges with two white lights near it,Circle,15-20 minutes
35.4697683,104.5277627,Trementina,NM,6/15/91,Saw hoverering cylinderical object in the air withkout wings. Saw one small light at the top.,Cylinder,5 min
33.8081608,84.17019599999999,Stone+Mountain,GA,6/15/91,"Disk, super fast, very low, completely silent.",Disk,1 minute
26.217305,80.2258811,North+Lauderdale,FL,6/15/91,WOKE UP IN MIDDLE OF NIGHT TO BRIGHT LIGHT IN LIVING ROOM. SAW BLUE/GRAY HOODED CLOAK. LOOKED TWICE A MESSAGE WENT IN MY HEAD TO GO BAC,Other,?
37.3672744,88.4864316,Galconda,IL,6/15/91,Class III Encounter,N/A,several occasions
27.7518284,82.6267345,St.+Petersburg,FL,6/13/91,"Bluish object hovering,then gone.",Other,5-10 seconds
41.0323078,76.3079936,Mifflinville,PA,6/12/91,I left work in bloomsburg pa at 700pm heading east on I80 at 710pm about 1/4 of a mile from the bridge that crosses the river i saw a l,Light,2 min
35.0717945,81.64981949999999,Gaffnet,SC,6/12/91,they forgot to turn the cloaking device on,Triangle,15 min
41.2617481,75.8968635,Kingston+area,PA,6/12/91,Light coming closer craft appears,Triangle,20 to 30 miutes
40.7259336,73.51429209999999,Levittown,NY,6/10/91,My Mother her boyfriend and myself seen a spaceship like the one from Close Encounters of the 3rd kind hovering for like 5 minutes,Circle,5 minutes
32.8182868,103.9804377,Locohills,NM,6/7/91,Out nowhere a mercury color looking sapeship Came hovering flying next to our window about three times bigger than a pick up truck.,Disk,3 hours
32.8182868,103.9804377,Locohills,NM,6/7/91,"Suddenly, out of nowhere, it started with the radio going bizzare, making strange noise.  Then truck seemed to be lifting.",Disk,3 hours
38.9896967,76.93776,College+Park,MD,6/6/91,heavy looking object; stationary; hovering and very loud,Other,30 min.
40.739097,114.073345,W.+Wendover,NV,6/6/91,"Gigantic flying &quot;L&quot; triangle floating slowly across Hwy. 80 in Eastern Nevada , chased by jets.",Triangle,8  minutes
41.8389213,89.47954779999999,Dixon,IL,6/3/91,saw what we thought was a helicopter in trouble. disk was approx 35feet above ground and sitting motionless making no noise approx 40 f,Disk,10 minutes
43.0125274,83.6874562,Flint,MI,6/1/91,"UFO over Flint, Michigan 1991",Disk,N/A
44.5956163,75.1690942,Canton,NY,6/1/91,"Three, blue, circular lights were hovering in a triangle formation over a field in Northern, NY in June 1991.",Light,3 minutes
39.4457106,89.9254081,Highway+24+(near+St.+Louis),IL,6/1/91,"saw a triangle shaped craft, drove under it, it imploded into orange ball of light and shot straight up.",Triangle,15 minutes
44.8759802,93.0275802,South+Saint+Paul,MN,6/1/91,"It was huge , black , with lights and totally silent and triangle shaped",Triangle,90 seconds
37.335299,83.1292265,Dwarf,KY,6/1/91,a low flying red object,Teardrop,N/A
42.6064095,83.1497751,Troy,MI,6/1/91,"My wife 34,son 10 and his grandmother 68,saw a disk shaped object with lights hovering .5-1  mile up in the air near 14 mile and I-75 w",Disk,10min
39.3642834,74.4229266,Atlantic+City,NJ,6/1/91,Three intensely bright red cirlcles in a triangular formation travelling in tanden as seemingly high speed,Circle,10 mins
34.1141743,116.432235,Yucca+Valley,CA,6/1/91,A UFO Experience of Time and Space in The Hi-Desert of Southern California,Disk,3 days
38.7134516,77.7952712,Warrenton,VA,6/1/91,A  silver circle shaped disk with a dome on top and a shield that opened and closed in a cloud on a sunny day in Warrenton Virginia,Circle,5 Mins
36.1699412,115.1398296,Las+Vegas,NV,6/1/91,I was about seven when it happened.,Other,2 Hours
36.9980285,110.0984574,Monument+Valley,AZ,6/1/91,"Monument Valley Sighting, Arizona - 1991",Disk,20 seconds
40.7906538,73.20178109999999,Central+Islip,NY,6/1/91,Huge Triangle UFO,Triangle,2-5 minutes
40.8011125,73.8292316,"Whitestone+(Queens,+over)",NY,6/1/91,A disk shape object was spotted by my Dad while he was relax ing the back yard. He called to me sveral times .I thought he was pulling ,Disk,15-20 mins.
38.7521235,121.2880059,Roseville,CA,6/1/91,"The cigar-shaped silver craft was stationary in the sky, then disappeared.",Cigar,10 minutes
27.2730492,80.3582261,Port+St.+Lucie,FL,6/1/91,thought it was space shuttle lift off,Oval,5 minutes
40.3359028,79.86977069999999,Port+Vue,PA,6/1/91,Mother and daughter view glowing red sphere at 4:00 in an empty field 200 yards behind neighbor's back yard.,Sphere,10 minutes
32.6926512,114.6276916,Yuma,AZ,6/1/91,"Loss of hours while driving to Yuma, Az",Disk,7 hours/uncertain
42.2722641,84.96331479999999,Marshall,MI,5/31/91,"Very low-flying, metallic saucer-shaped craft with multi-colored panels by major Michigan roadway in daytime.",Disk,10-15 seconds
32.3199396,106.7636538,Las+Cruces,NM,5/30/91,a hollow blue ball of lighting that turned to a fireball then took and umbrella shape and loomed for a second then disapeared.,Fireball,10-15 seconds
42.87448819999999,71.1809803,Hampstead,NH,5/25/91,It sailed through the sky directly above our back yard without any kind of noise.,Disk,2 min
36.6060444,118.0628654,Lone+Pine,CA,5/25/91,Mysterious Green Light following US-395 near Lone Pine,Light,60 Seconds
44.4582983,93.161604,Northfield,MN,5/20/91,"7 UFOs flying in a train formation seen in Northfield MN, 1991",Formation,8 minutes
39.7589478,84.1916069,Dayton,OH,5/17/91,Ufo seen near Wright Pat airforce base,Oval,2 min
42.5629668,114.4608711,Twin+Falls,ID,5/15/91,Object was going from east to west. On a very slight down word angle. It was bright green. No fire debris. But a heat distortion.,Teardrop,7 seconds
31.4274044,94.8085435,Central+Texas,TX,5/15/91,Mother relates story of helicopters observing circle of blue lights on ground.My mother told me this story a few years ago and I ju,Light,N/A
49.7344685,114.8796552,Sparwood+(Canada),BC,5/15/91,I observed  three stationary interconected lights that changed intensity and made several right angle movements before moving off.,Light,5-6 minutes
32.9954021,94.96576879999999,Pittsburg,TX,5/13/91,"Random flashing multicolored lights, with one spotlight, shining down onto my house.",Unknown,5 minutes
49.4741736,123.7545601,Sechelt+(Canada),BC,5/13/91,"You spend a good part of your life a non-believer, until one day you see something that will change your view forever!!",Disk,2-3 minutes
33.4483771,112.0740373,Phoenix,AZ,5/11/91,Glowing white sphere moving rapidly west to east high rate of speed and absolutely silent. Phoenix PD confirmed sightings,Circle,2 minutes
33.660297,117.9992265,Huntington+Beach,CA,5/11/91,Burning Magnesium Orbs,Other,2 minutes
40.3356483,75.9268747,Reading,PA,5/10/91,"bright light approaching aircraft, aircraft responds with &quot;something&quot;",Light,3
40.7536528,86.0688811,Peru,IN,5/10/91,"Saucer lights up farmhouse, tree, and puts on a light show for two unsuspected teenagers.",Disk,10 minutes
36.1311317,114.4410972,Lake+Mead,AZ,5/8/91,me and brother suddenly awoke on top of houseboat witnessed blue/white &quot;saucer in light&quot; observed for 30 seconds then watched it depart,Light,1 minute
35.14726,107.8514466,Grants+(southeast+of),NM,5/5/91,bright light travelling normal speed stops above us for minutes then shoots off in nighttime NM sky.,Light,2 minutes
36.7417235,88.6367154,Mayfield,KY,5/2/91,9 objects close together. Blue Hue.,Teardrop,Cluster of Blue Lights
33.0801429,83.2320991,Milledgeville,GA,5/1/91,My sister and I witnessed a disk shaped UFO with many colored lights hovering over the golf course we lived across from.,Disk,1 minute
40.6806563,73.4742914,Massapequa,NY,5/1/91,A large bright hexigon shape over Massapequa NY,Other,thirty seconds
33.7739053,117.9414477,Garden+Grove,CA,5/1/91,Lazer like fire from staionary objects in sky!,Sphere,45min+
33.1192068,117.086421,Escondido,CA,5/1/91,Saw a blue shaped oblong (cigar shaped) object which was stationary at first and then acclerated  at an incredible speed and disappeare,Cigar,2 seconds
40.6781784,73.9441579,New+York+City+(Brooklyn),NY,5/1/91,"In the summer of 1991 around the months of May to September, the New York Post had a small paragragh printed, that anyone who thought t",Circle,5 minutes
38.5815719,121.4943996,Sacramento,CA,4/27/91,Object in CA defied known laws of physics.,Changing,20-30 min
33.4598415,94.4154787,New+Boston,TX,4/17/91,"I believe now, especially after the craft hovered over me, only feet above my head!!!",Oval,3 to 4 minutes
38.7296252,120.798546,Placerville,CA,4/15/91,"Spring 1991  Placerville,Ca.   Light  5-10 seconds view from patio clear sky  Light outruns 2 jets!!",Light,moments
42.3930105,112.1795129,Malad/Downy,ID,4/15/91,UFO SPOTTED IN SOUTHEASTERN IDAHO IN RECENT YEARS,Circle,10 seconds
34.1954001,82.1617883,Greenwood,SC,4/15/91,"seen craft in plain day, less than 150 ft. away larger than a football feild,  no lights , clear , fast, silent.",Oval,1min
38.5733155,109.5498395,Moab,UT,4/15/91,"One morning while hiking in some mountains in Utah two friends and I saw a large, diamond-shaped, unidentified flying object.",Diamond,1 minute
38.5429966,89.8526286,Scott+A.F.B.,IL,4/15/91,"Observed 1 object moving app. 200 kts., traveling east to west, altitude app. 3000 ft.",Triangle,4 min
37.26945,107.0097617,Pagosa+Springs,CO,4/13/91,I am a 68 year old retired president of an international trade association.My nephew and I  were driving on a remote hightway in the mo,Cigar,20 seconds
41.5833688,87.5000412,Hammond,IN,4/11/91,UFO over Hammond.,Triangle,4 minutes
43.6884112,70.79367189999999,Limerick,ME,4/1/91,"disk, spheres",Disk,15 minutes
35.7201463,79.1772371,Pittsboro,NC,4/1/91,"4 white spheres, seen early night, over Jordan Lake, from corner of Andrews Store Rd. &amp; Chapel Hill Rd.",Sphere,1-2 minutes
41.372316,73.733465,Mahopac,NY,4/1/91,"Bright, glowing ball of light silently hovered over condo complex, then flew over condos parallel to ground.",Light,5 minutes
33.9716424,77.9177488,Fort+Fisher,NC,4/1/91,"Red lights came out of the water, hovered a few seconds then went up at a slight angle at a speed that was incredible. As big as 3 airc",Light,30 minutes
37.68717609999999,97.33005299999999,Wichita,KS,4/1/91,Three orange lights,Triangle,1 hour
46.3546803,72.5837866,Trois-Rivi&egrave;res+(Canada),PQ,3/30/91,"A  quiet vessel flying over  the University of Trois-Rivieres,Quebec",Other,12 seconds
46.2569184,99.55705669999999,Wishek,ND,3/26/91,Double sphere object came floating in. Stopped and then  sped off at lightning speed.,Sphere,2 minutes
35.1225727,85.34384879999999,Signal+Mountain,TN,3/20/91,Hovering disk object lights up the woods,Flash,3 mins
44.9746896,92.7568703,Hudson,WI,3/15/91,"3-15-91 Hudson, Wis. u/n  30 min. grey entered  home via bright lite. stood by pregnant wife. daughter born 3 wks later w scar  3-31-15",Unknown,u\k
43.6187102,116.2146068,Boise,ID,3/10/91,Saucer Shaped Craft Followed Me,Disk,10minutes
33.7739053,117.9414477,Garden+Grove,CA,3/8/91,"4 individual ligths separate from main body, disperse then reunite and are retrived by main body",Light,1 hour
38.9784453,76.4921829,Annapolis,MD,3/7/91,"I first looked out the window and saw 10 black triangular objects in an eye formation. near a radio tower, and  I and the other  3 memb",Triangle,10sec
42.9921579,79.2482555,Welland+(Canada),ON,3/1/91,A light winding down to the ground,Light,3 mins
40.4933734,74.5228916,Franklin,NJ,3/1/91,Large silent lighted object moves slowly south changes direction accelerates at high speed to east out of sight.,Unknown,1-2 minutes
41.11774399999999,73.4081575,Norwalk,CT,3/1/91,Oval Shaped Silvery Metallic Craft moving in a straight line very quickly.,Oval,1 minute
41.1134289,74.2454254,Ringwood,NJ,3/1/91,Daylight sighting of cigar-shaped object,Cigar,2minutes
44.977753,93.2650108,Minneapolis,MN,3/1/91,"5-6 silver, egg-shaped craft desending one by one at early sunrise on Lake Calhoun in Minneapolis.",Egg,10 minutes
34.805079,85.02744709999999,Rockyface,GA,2/19/91,I watched a brilliant gold colored cylindrical object with several pink and blue lights floating in the air,Cylinder,thirty minutes
42.9633599,85.6680863,Grand+Rapids,MI,2/15/91,I was taking my daughter home from the local hospital and i looked acrossed the street. I saw this circular or flat round shape with li,Disk,5 minutes
39.7047095,105.0813734,Lakewood,CO,2/15/91,First observed hovering above tree up close by my daughter age 11 &amp; her friend 12. Daughter saw window of air craft felt staired at but,Circle,3 minutes
38.5787965,122.5797054,Calistoga,CA,2/15/91,"Golden Orb about 3 feet across, moving pretty quickly and smoothly above the hills.",Sphere,2 minutes
36.5707838,119.6120765,Selma,CA,2/14/91,"02/1991  Selma CA, shape Other, Lasted for 5 minutes traveling slow accross high winds.",Rectangle,One Minute
39.7561387,75.07279559999999,Washington+Township,NJ,2/11/91,Strobe light projected from the bottom of a Bell shaped object  at less then 500 ft. altitude lit up my bathroom and back yard.,Other,25 seconds
41.0050977,73.7845768,Scarsdale,NY,1/20/91,Guard dogs on the hunt,Other,5 minutes
33.8675143,117.9981181,Buena+Park,CA,1/15/91,Two stationary crafts in the sky blinking green lights to each other,Sphere,N/A
40.028848,74.89164579999999,Willingboro,NJ,1/15/91,"Five and a half hour light show, first one then many. Hovering , moving fast and seemingly just flying around ...read on",Unknown,5 hrs
42.8806437,71.3273346,Derry,NH,1/14/91,strange object hovering over tree line over old railroad bridge.,Disk,2minutes
61.17205399999999,113.673764,Ft.+Resolution+(near)+(NWT)+Canada),NT,1/10/91,Strange throbbing sound with intense flashes of light over several minutes-No direct observation of any craft,Unknown,5 minutes
32.6126381,90.0367512,Canton,MS,1/10/91,fast light in the sky,Light,45 min
34.5291,90.58999999999999,Helena,AR,1/1/91,I was outside of the police station with my dog when I got this sudden urge to look up. I saw a black triangle flying really low and ma,Triangle,1 minutes
42.8353619,71.6489836,Milford,NH,1/1/91,"((HOAX??))  GROUND TO SKY, CLOUD TO GROUND LIGHTNING STORM, UP IN TREE STAND BEFORE DAWN. IT GETS MORE INTERESTING",Unknown,NOT LONG
