lat,lng,city,state,date,specs,shape,duration
34.0922335,117.435048,Fontana,CA,12/31/94,"Man, wife, and neighbors witness strange, bright red light overhead.  Video-taped for 8-9 min... Obj. ascended, departed.",Light,10 minutes
40.2968979,111.6946475,Orem,UT,12/31/94,"Man &amp; wife, and four neighbors witnessed a strange ball of red, orange, and white light for 5 min.. Left trail",N/A,5 minutes
47.32926399999999,122.5801293,Gig+Harbor,WA,12/31/94,"Father, daughter, and  witnesses (astronomers) observe red obj. that ejected smaller objects.  Obj. shot off to SE.",N/A,12 minutes
38.7945166,83.5451934,West+Union,OH,12/31/94,"Young man repts. seeing orange dot, which fluttered, descended, disappeared, then suddenly reappeared w/ 3 other objs.",N/A,N/A
47.0042643,122.539846,Roy,WA,12/30/94,"Woman sees bright &quot;star,&quot; which moves toward her, glides overhead. Looks like &quot; three tubes joined together.&quot;",N/A,3 minutes
34.0522342,118.2436849,Los+Angeles,CA,12/30/94,"Three adults in car north of L.A. observed large, bright, orange ball of light move west.  Left luminous tail.",Light,2 min.
43.0722932,74.6926462,Oppenhium,NY,12/29/94,"A large kitchen table sized, ovel with lights going around it went past my house not making a sound.",Oval,about 5 min.
46.8140449,117.8818834,La+Crosse,WA,12/29/94,"Three seemingly identical black, delta-shaped, ships with a very bright yellow or white &quot;headlight.&quot;",Delta,N/A
43.446419,85.2741975,Lakeview,MI,12/29/94,"Man stopped on highway to watch bizarre lights moving in night sky.  Other cars stopped to watch them, too.",Light,5 minutes
34.1973122,118.6439809,West+Hills,CA,12/26/94,"Slow fireball, low in the sky",Fireball,5 seconds
39.1031182,84.5120196,Cincinnati,OH,12/25/94,On Christmas day we saw an orange ball of light with a ring surrounding it in the sky.,Circle,5 minutes
38.4192496,82.44515400000002,Huntington,WV,12/25/94,Kanawha River West Virgina 1994,Unknown,6 minutes
34.1489719,118.451357,Sherman+Oaks,CA,12/24/94,"Triangular, silent object, descends through clouds then ascends upwards, followed by helicopter.",Triangle,3-5 minutes
47.6062095,122.3320708,Seattle,WA,12/24/94,"Man witnesses very bright, multi-colored object pass overhead very fast.  Disappeared to the north in 20 sec..",Light,20 sec.
41.15453950000001,74.19292399999999,Sloatsburg,NY,12/23/94,"Bright white light too big to be a helicopter hovering over trees, in a blinks eye it shot up into sky.",Unknown,30 seconds
41.900101,71.0897674,Taunton,MA,12/20/94,"A humming object,that put me in a trance like experience flying over Taunton,MA",Other,30 seconds approximately
45.5016889,73.567256,Montreal+(Canada),PQ,12/17/94,hovering craft,Circle,5 mins
44.7893446,93.60183889999999,Chaska,MN,12/17/94,"Sphere above the horizon, ejecting smaller spheres",Oval,3 minutes
41.320343,93.09966999999999,Knoxville,IA,12/15/94,Hovering object seen high in night sky as a /\ (this should be like an arrowhead) changing or to a ,Changing,2 hrs?
34.39888380000001,119.5184564,Carpinteria,CA,12/15/94,I lived on the beach in Carpinteria at the time of the sighting.  The reason I am writing to you is that I have never heard of the type,Unknown,10 min.
39.768403,86.158068,Indianapolis,IN,12/15/94,"Ok, I was in 7th grade when this happend, but interested in UFO's.  I was coming out of my middle school after a basketball game.  Ther",Triangle,30 Seconds
40.9153362,81.10593089999999,Alliance,OH,12/15/94,Brightly Colored Orbs Over Portage County,Formation,30 min +
45.52597400000001,73.3406679,St-Bruno+(Canada),PQ,12/15/94,"It was very cold, so i was sitting in my car on this little side road off the trans-Canada highway through St-Julie, Quebec. I could se",Sphere,4 minutes
33.6469661,117.689218,El+Toro,CA,12/15/94,Saw a light in the valley moving back and fourth directly over the El Toro Marine Corps Air Station. It left straight up when two F/A-1,Light,3 mins
41.0997803,80.6495194,Youngstown,OH,12/15/94,"U.F.O in Youngstown,Oh",Teardrop,30 MINUTES
41.2476902,80.6715317,Vienna,OH,12/14/94,"HELP!Trumbull, Ohio, 1994, Local Authorities &amp;NBC cite Mass UFO sighting, Gov./Military Denies Incident, flimsy, but effectiveCover UP",Other,7-9 hours
35.08758359999999,84.0346315,Murphy,NC,12/13/94,"Woman reports seeing strange, lighted obj. with  &quot;arms.&quot;  Many witnesses and written reports.",N/A,N/A
36.0726354,79.7919754,Greensboro,NC,12/12/94,"U.F.O. seen over Greensboro, N.C. , unbelievable sighting of a Bright glowing object in the sky.",Oval,5 Minutes
33.4936391,117.1483648,Temecula,CA,12/10/94,"Last night, while driving home from work I spotted an unusual looking flying object.The UFO traveled slowly like a blimp.  It was t",Disk,3-4 mins
42.90823229999999,94.0845981,Lu+Verne,IA,12/9/94,Large orange ball of light moving slowly across sky.,Light,5 Seconds
41.5950989,72.6453705,Cromwell,CT,12/9/94,"Woman witnesses bizarre cluster of lights overhead, humming sound, sees strange beam of light &quot;scanning&quot; ground.  Exclnt rept.",N/A,8 min.
44.911006,116.0987364,McCall,ID,12/8/94,Couple awakened by bright lights illuminating home.  Neighbors saw same obj. hovering overhead.  Power failure reptd.,Fireball,10 seconds (?)
37.7808846,90.4217895,Farmington,MO,12/6/94,"No lights, no sound, and HUGE.  Quite an ironic sighting.",Chevron,2 minutes
33.9204354,80.3414693,Sumter,SC,12/5/94,"Large object no engine noise, hovering 75 yards away. producing a light that made no shadows. after short hover time began climbing at ",Circle,10 minutes
40.8980304,98.2131512,Phillips,NE,11/29/94,Silent bright multicolored object moved at high speed stopping abruptly to change direction. shot straight up into upper atmosphere,Light,10 minutes
39.2931174,83.9888205,Blanchester,OH,11/27/94,"triangular shaped object over SW Ohio, moving very slowly and completely silent",Triangle,2-3 minutes
47.6587802,117.4260466,Spokane,WA,11/27/94,Twin lights fly overhead,Unknown,5-10 minutes
36.0726354,79.7919754,Greensboro,NC,11/26/94,The object moved right and left very fast then a flash of light it split in two objects.,Cigar,20 mIN.
41.9583822,85.3249817,Colon,MI,11/23/94,"We were waiting for the school bus, when I looked up and saw three circular aircraft flying in a triangular form.",N/A,N/A
34.1425078,118.255075,Glendale,CA,11/23/94,The craft was a light blue shiny sphere frisbee looking object.It flew left to right  a couple of times then it flew in circles and the,Sphere,12 seconds
45.3733428,84.9553296,Petoskey,MI,11/16/94,"Object changed shape, color and path.",Triangle,20+min.
40.8687096,73.0014946,Coram,NY,11/15/94,"It was 5-10 feet above my head and my sunroof  was wide open,",Other,2 minutes
37.3184064,84.9393979,Liberty,KY,11/15/94,orange firery ball/ pouring out green and purple smoke from beneath./ at night-very visible,Fireball,15 mins
36.8354258,76.2982742,Portsmouth,VA,11/15/94,Two flashes of illuminating green light that lasted 3 seconds each &amp; lit up the surrounding area.,Flash,10 seconds
33.7489954,84.3879824,Atlanta,GA,11/15/94,HBCCUFO CANADIAN REPORT:  Oval shaped bright light.,Light,apprx&quot; 20 seconds
36.4745636,81.80483799999999,Mountain+City,TN,11/15/94,Computer engin. repts. seeing triangular ships over TN almost nightly.  Repts. overhearing radio commo. of  F-15  firing on UFO.,Triangle,20 min.
30.9251869,88.5900235,Lucedale,MS,11/15/94,I was caught in the light,Disk,3-4 min
28.8354507,82.3313955,Inverness,FL,11/14/94,A large rectangular ship making a humming sound was sighted over my house late in 1994.,Rectangle,N/A
32.715738,117.1610838,San+Diego,CA,11/14/94,Rectangle lights in circluar motion zig zagging through the sky within seconds.,Other,7 minutes
34.8734033,87.6233517,St.+Florian,AL,11/12/94,Alien Agricultural Expedition,Disk,5 min
41.3436554,86.3097278,Plymouth,IN,11/11/94,My friend and I were walking to my house when we stopped to look at the moon.  We started looking at stars and we saw a little ship com,Diamond,1.5 minutes
41.3436554,86.3097278,Plymouth,IN,11/11/94,1994 in Indiana- Black Triangle with white &amp; red lights hovering then flying away quickly,Triangle,5 mins
30.1316001,94.0154541,Vidor,TX,11/10/94,i believe i was abducted almost directly in front of my home. 500 Lights On Object0: Yes,Unknown,2 hours
29.4241219,98.49362819999999,San+Antonio,TX,11/10/94,It was in the morning and this grey ball was floating in the sky.,Circle,about 30 sec.
46.7682671,88.7531908,Alston,MI,11/5/94,"Triangular shaped UFO over house in Alston, Michigan",Triangle,1 hour
35.1846001,111.6325044,Hwy+I-40+(west+of+Flagstaff),AZ,11/5/94,The object was observed by myself and my wife while we were traveling west on I-40.,Oval,1 minute
61.678882,149.2278241,Palmer+(10+miles+north+of),AK,11/3/94,"No sound, traveled extremly fast. Appeared to dip down into the trees. It's incredible light made no reflection onto us or the groud.",Light,20 MINUTES
38.9104546,122.6102614,Lower+Lake+(Near),CA,11/1/94,&quot;The Dunn sightings&quot;  Two hunters parked at the end of a fire trail near the highest point in the area observed a bright white light in,Disk,10 minutes
42.2288084,83.7395095,Ypsilanti+(Pittsfield+Township),MI,11/1/94,"AT NIGHT ,WIND 20-25 FROM WEST MED TO HIGH CLOUDS SCATTERED OBERSEVED FUZZY LITE  OBJECT MOVING TO S/W 5-10 MPH NO SHAPE WAS NOTED CLOU",Unknown,1-3 MIN
36.011453,88.6228349,Trezevant,TN,11/1/94,Triangle UFO changes three lives. 500 Lights On Object0: Yes,Triangle,10 min
36.1049628,83.28538429999999,White+Pine,TN,10/31/94,Yellowish/orange sphere seen by 4 police officers in East Tn,Sphere,15 minutes
32.744774,116.998916,Spring+Valley,CA,10/31/94,red light over Tijuana Mexico viewed from Spring Valley,Light,45 minutes
28.4831682,82.5369872,Spring+Hill,FL,10/30/94,"WHITE DOTS OVER SPRINGHILL, FLA",Circle,20min
43.710915,83.5276722,Fish+Point,MI,10/25/94,2 round balls of fire hovering over Saginaw Bay,Fireball,10 minutes
29.4241219,98.49362819999999,San+Antonio,TX,10/25/94,"amorphous, floating ink-spot in the night sky",Other,10-20 seconds
35.2270869,80.8431267,Charlotte,NC,10/24/94,We were under brilliant illumination that was much brighter than the 2:30 pm afternoon clear day sunlight.,Disk,1/2 hour
40.245664,74.8459972,Yardville,PA,10/24/94,"On October 24th, 1994 at about 1:30pm 1:45pm It was a clear blue sky I was looking due west when I noticed High in the sky a bright red",Circle,10 to 15 minutes
37.5652016,77.5346972,(unknown),VA,10/23/94,3 lighted circular air craft,Triangle,Chimney Hill County
37.8715926,122.272747,Berkeley,CA,10/22/94,Points of light in the night sky in Berkeley followed years later by technological assault in San Jose.,Light,2 minutes
41.900101,71.0897674,Taunton,MA,10/20/94,I observed the Craft at a close enough distance to know it was not anything man made based upon my training and experience. 500 Lig,Circle,8-10 seconds
41.84087419999999,74.15243939999999,Stone+Ridge,NY,10/20/94,strange lights in field sound similar to another area sighting,Light,3-4 minutes
41.84087419999999,74.15243939999999,Stone+Ridge,NY,10/20/94,"While riding home at night, my wife, daughter, and I saw an object in the sky to our left over a cornfield.  From the center of the obj",Triangle,10 minutes
43.3269685,83.08022,Marlette,MI,10/20/94,"was comming north out of the sky. was a bright object, shot out of the sky come down in frot of the car and shot back up in the sky tow",Flash,N/A
44.2214069,80.8543847,West+Grey+(Canada),ON,10/20/94,"It was an absolute object,it had intent,and I will never forget that night!",Sphere,10 minutes
28.0186323,82.1128641,Plant+City,FL,10/20/94,"I was following it in my car for a short period of time and watched it disappear before my eyes, it was a clear morning. It amazed me. ",Disk,5 min
41.143245,81.8552196,Medina,OH,10/19/94,a huge bright orange sphere appeared and dissapeared,Sphere,20 minutes
42.3042402,76.1865964,Berkshire,NY,10/17/94,"V shaped light formation traveling in a south-west to north-east between Binghamton and Ithaca, NY",Triangle,5-10 minutes
35.4873613,80.6217341,Kannapolis,NC,10/17/94,brilliant light coming and going,Light,20 seconds
32.5448714,94.36741839999999,Marshall,TX,10/15/94,Orange fiery disk flying at tree level,Disk,5 seconds
45.1473445,122.5770322,Molalla+(near),OR,10/15/94,"black object in sky traveling above river, circle of light appearing to come from it lighting up river in just that area of light",Other,3 minutes
40.44062479999999,79.9958864,Pittsburgh,PA,10/15/94,"It was a clear night in October, about 1994.  I saw a bright white &#8220;star like&#8221; thing in the sky. It was NOT moving. I was facing down t",Light,30 seconds
40.3003752,83.06848289999999,Outside+of+Delaware,OH,10/15/94,Four UFOs and a mothership on tape,Teardrop,21:00 to 23:00
41.6347726,84.9994088,Angola,IN,10/15/94,"Designed like a spare tire, dark back lit port blueish, had been hiding in a forest .",Disk,2 to 3 minutes
43.0389025,87.9064736,Milwaukee,WI,10/15/94,"A ufo with a large circular, white light ing the center with 3 smaller, red lights making a triange shape around the white light.",Triangle,N/A
48.3681223,124.6249602,Neah+Bay,WA,10/15/94,Metallic sphere floats in the sky...,Sphere,30 minutes
35.8251273,92.4406387,Oxley,AR,10/15/94,On the way to my grandfathers house myself and my father witnessed a red fireball hovering in the middle of the old gravel road we were,Fireball,Seconds
42.4439614,76.5018807,Ithaca,NY,10/15/94,"A bright object was seen from a far distance. It gave off a bright white light, sometimes turning gold, the it would turn red and green",Light,3 hours
47.6101497,122.2015159,Bellevue,WA,10/15/94,"Former mil. officer (ret.) w/ son &amp; 4 others witnessed a very bright obj. in cloudless blue sky.  Alternated silver, black, then white.",N/A,25 min.
39.600618,82.9460133,Circleville,OH,10/15/94,"Silver disc saucer hovers above town, then disappears",Disk,30 seconds to one minute 
41.84087419999999,74.15243939999999,Stone+Ridge,NY,10/15/94,Sitting on bench at UCCC. Looked up to the West and saw an oval UFO. Closed my eyes because my mind could not believe what it was witne,Oval,30 seconds
35.3614649,86.8397236,Cornersville,TN,10/14/94,"Bright, round, white light flies over Coleman RD at night. 4 people saw that I know of. It was moving slow.",Circle,5 to 20 minutes
29.41191659999999,82.10981559999999,Citra,FL,10/14/94,We saw a perfect  Spherical ball of light in the sky that  wasn't the moon.,Sphere,2 min
36.3231066,86.7133302,Goodlettsville,TN,10/14/94,"I saw what looked like a large orange fireball hovering, it then shrunk to the size and color of a star.",Changing,2 minutes
37.7808846,90.4217895,Farmington,MO,10/13/94,I spotted what I thought was a bright landing light of a larger than usual aircraft for our airport.,Cylinder,2 min
47.2430959,68.3136517,St.+Agatha,ME,10/13/94,"UFO flap of 6 crafts hovering over 2 women in a car, near Long Lake, St. Agatha, ME.",Disk,45 minutes
27.2439349,80.82978279999999,Okeechobee,FL,10/12/94,Close encounter 5th kind - CE5.,Disk,unknown
36.8297937,84.8491126,Monticello,KY,10/12/94,Triangular/chevron small object with fixed lights at corner--very fast moving.,Chevron,1-2 minutes
42.8142432,73.9395687,Schenectady,NY,10/12/94,I had just picked up my Daugther (2yrs old) from my Mother-in-Laws and was on my way home it was a clear cold crisp day with the leaves,Other,a few minutes
43.8970929,78.86579119999999,Oshawa+(Canada),ON,10/12/94,Boomerang.,Other,15 minutes
33.9533487,117.3961564,Riverside,CA,10/11/94,"Double white lights in chevron shape flying north to south about the size of the constellation of the Pleades, covered half the sky in ",Chevron,4 seconds
40.0918895,74.35874729999999,Jackson,NJ,10/11/94,triangle UFO in jackson NJ  Countyline 526   over the old fire station next to the trailer park,Triangle,5mins
43.653226,79.3831843,Toronto+(greater+Toronto+area)+(Canada),ON,10/10/94,Large rusty sphere,Sphere,~1 hour
34.102783,91.9923249,Pinebergen,AR,10/10/94,"Round, bright, low flying object silently speeds West of Arkansas town at 11:30pm, 10/10/94.",Light,5 seconds
42.9096911,73.8951486,Burnt+Hills,NY,10/10/94,"Giant rectangular craft (resembling an upside-down aircraft carrier) over highway near Saratoga, NY.",Rectangle,2 minutes
26.1497977,97.91361119999999,Mercedes,TX,10/10/94,ufo chased by fighter jet over Rio Grande Valley. Seen on news,Cigar,1 hour
25.8575963,80.2781057,Hialeah,FL,10/9/94,sunlike sphere,Sphere,4 minutes
48.3808951,89.2476823,Thunder+Bay+(Canada),ON,10/8/94,The speed it moved is unbelievable. and the colour of light's is unmistakeable.,Oval,15 min.
26.5317866,80.0905465,Boynton+Beach,FL,10/8/94,UFO Pictures,Other,Fast
39.600618,82.9460133,Circleville,OH,10/5/94,Large object with flashing seen from 3 directions over Circleville.,Circle,30-45min
40.4437018,76.42829329999999,Fredericksburg,PA,10/1/94,"I was driving by on the road and seen this saucer , it was ON the ground near a house. I stopped down the road and got out to get a clo",Disk,5minutes
38.2554729,120.3510307,Arnold,CA,10/1/94,"A string of multicolored lights, silently gliding by above the tree tops, at 11 pm, in a high mountain town.",Other,5 minutes
36.1699412,115.1398296,Las+Vegas,NV,10/1/94,Bright green object in flight allmost colided with my aircraft.,Circle,5 seconds
38.2430811,93.3818711,Warsaw,MO,10/1/94,Triangle shaped object hovering above the water.,Cigar,10 Minutes
34.4208305,119.6981901,Santa+Barbara,CA,10/1/94,Black triangle,Triangle,3 seconds
42.1487043,72.6078672,Chicopee,MA,10/1/94,"Chicopee State Park, Craft seemed to be shooting balls of light or breaking up",Changing,5 minutes
31.223414,90.421506,Tylertown/McComb+(between;+on+Hwy.+98+),MS,10/1/94,"orange molten-metal, crescent-shaped object paralleling car for 15 - 20 minutes",Changing,20 minutes
40.7127837,74.0059413,New+York+City,NY,10/1/94,"a flying colorful disc above my car, near Erie.  ((NUFORC Note:  Possible hoax??  PD))",Disk,15 seconds
36.3378321,96.8039232,Pawnee,OK,10/1/94,It was triangle shape with white lights at each corner of it and a large red one in the middle.,Triangle,20 min
35.4492404,86.7888887,Lewisburg,TN,9/27/94,A light split into 5 lights.,Disk,about 1 minute
48.6330816,122.9289822,Orcas+Island,WA,9/24/94,Bright blue flashes in the sky and zigzagging light - 1994,Light,1-1/2 hrs
43.3255196,79.7990319,Burlington+(Canada),ON,9/24/94,i made a composite and closeup painting with a map to provide visual details of this remarkable event.,Triangle,5 minutes
41.2613129,114.1941831,Montello,NV,9/21/94,multi-colored circle of lights moving slowly in northerly direction above mountains.,Circle,1 minute
41.2613129,114.1941831,Montello,NV,9/21/94,"A necklace of colored lights against light blue sky, about 800 yards long, moving slowly north.  Blue sky could be seen through the cen",Other,30-40 sec.
41.2429494,81.71305219999999,Hinckley,OH,9/20/94,UFO Medina County 1994,Circle,5 minute
39.0725121,93.7171621,Higginsville,MO,9/20/94,We saw what we thought was a star that kept moving around and disappeared.,Other,15 minutes
38.5890723,121.302728,Rancho+Cordova,CA,9/20/94,While driving East on highway 50 fireball dropped out of sky.,Fireball,1second
41.467642,75.61877659999999,Dickson+City,PA,9/20/94,Burnt orange ball from 06:50 rising from the west for about 30 seconds until it reach the '10:30' postion in the sky before blinking ou,Fireball,30-40 seconds
40.6639916,74.2107006,Elizabeth,NJ,9/17/94,i could not identify this object with any known craft although i has study janes and nasa craft for years!,Disk,3 min
47.0798248,122.0515005,Carbonado,WA,9/16/94,IT STOPPED IN THE ROAD AHEAD SO CLOSE I COULD HAVE HIT IT WITH A ROCK,Oval,1 h
47.0798248,122.0515005,Carbonado,WA,9/16/94,IT CAME DOWN THE HILL AND INTO THE ROAD ORANGE-YELLOW BIG AS A HOUSE 50YDS AWAY,Changing,30mins
41.0478404,79.8133849,North+Washington,PA,9/15/94,F A S T -  Ionized Sphere?,Oval,4 Seconds
47.6587802,117.4260466,Spokane,WA,9/15/94,"I was able to clearly see three seperate disk shaped vehicles, with brassy looking metalic bodies that had three round nubs at the extr",Disk,2 min.
41.9270367,73.9973608,Kingston,NY,9/15/94,"Kingston, NY Sighting",Triangle,10 mins
40.4826851,79.95193069999999,Pittsburgh+(outside+of),PA,9/15/94,"While watching Prime Time live on TV, they stopped for the Crash of USAir Flight 427 and when showing the sky, the only object seen was",Disk,1 minute
48.1987118,122.1251418,Arlington,WA,9/15/94,"Comm. pilot repts. multiple, &quot;almost translucent&quot; objects streaking directly over his home in Fall l994.",N/A,10 sec.
30.4205138,97.9102647,Lake+Travis/Austin,TX,9/15/94,Myself and five other friends of mine were sitting on a rock ledge over looking lake travis. We had not been drinking or undre the infl,Other,25 seconds
36.0595148,91.9084819,Melbourne,AR,9/15/94,"I am a retired Fire Captain, City of Detroit, Mi. In 1991 We, my wife and youngest daughter, purchased a home in the &quot;Ozarks&quot;, Melbourn",Disk,10 seconds ?
34.1975048,119.1770516,Oxnard,CA,9/15/94,My husband and pulled up to Circle K to use the payphone. As I got back in the car we saw two men pointing up over the store.My husband,Disk,10 seconds
42.6583356,71.1367953,Andover,MA,9/15/94,enormous transparent cylinder/cigar shaped object w/stars(?) attached,Cigar,10-15 Seconds
41.5767602,74.4871031,Wurtsboro,NY,9/14/94,I was coming back from yankee lake when i saw it coming towards  route 17.About 11:30 P.M.,Circle,11:00
39.7284944,121.8374777,Chico,CA,9/9/94,"large solid spherical, bright emerald green with yellow fiery tail, coming across sky at a slow downward angle.  No impact felt or hear",Fireball,5-7seconds
43.1393867,80.2644254,Brantford+(Canada),ON,9/6/94,strange light that flashed,Light,10 weconds
21.313149,158.0089992,Ewa+Beach,HI,9/4/94,"09/04/94, Ewa Beach HI, Unidentified Spacecraft about 10 times larger and similar in design to our modern aircraft carriers.",Cigar,10 seconds
32.6728256,114.1468821,Wellton,AZ,9/1/94,Megatron in the bushes,Unknown,1 hour
37.7749295,122.4194155,San+Francisco,CA,9/1/94,glowing ball just under the surf about 2 1/2 feet off the beach south of san francisco/ocean beach approx 9/94,Sphere,10-15 minutes
45.0478557,123.9925014,Sitka,OR,9/1/94,"Small, silver, oval, about 1/2 mile out over bay, accelerated at enormous speeds, disappeared",Oval,1 minute
42.4390069,123.3283925,Grants+Pass,OR,9/1/94,"Thought of as a Dream for 20 Years, Recent Information Convinced me that Iv been Abducted by Aliens.",Changing,12 hours
40.7127837,74.0059413,New+York+City,NY,9/1/94,5 LIGHT THAT LOOKED LIKE STARS MOVING UP AND DOWN ON LIGHT AT A TIME,Light,3 hours
35.2481394,93.049061,PottsVille,AR,9/1/94,A bright orange sphere hovering over interstate 40 turned white then vanished.,Sphere,5 Min
37.9370132,121.2998987,Stockton+(South+of),CA,8/31/94,"I was captured, encapsulated,  I was one with that light, the objects were light.",Circle,minutes
32.715738,117.1610838,San+Diego,CA,8/28/94,"I was standing in by backyard, just past twilight, stargazing, when I noticed a large chevron shaped formation of lights, traveling fro",Chevron,15 seconds
44.012716,90.68835519999999,Fort+McCoy,WI,8/26/94,Disc shaped object darted across the sky in a reverse Z pattern.,Disk,20 seconds
33.1709559,84.5804828,Alvaton,GA,8/25/94,"We saw a bright light in the sky that ended up hovering directly above our car, was triangular, chased us before it left us alone.",Triangle,10 minutes
41.5886629,83.89105339999999,Swanton,OH,8/25/94,Football shaped object seen over house in country along with three objects hovering over road.,Other,five to ten min
32.4459968,112.8710113,Gila+Bend/Ajo,AZ,8/25/94,"2 lights moving in west sky at 8pm. one came down @ 820pm couldnt start truck, then was naked in passenger seat @ midnight",Other,20 mins
41.0256101,81.72985190000001,Wadsworth,OH,8/25/94,"It was a cloudless, bright day. As I was getting into my Chevy Cavalier I saw this flat black bowling ball shaped thing with a ring aro",Sphere,30 seconds
40.7127837,74.0059413,New+York+City,NY,8/25/94,no light and moved very slowly,Egg,a minute
40.7127837,74.0059413,New+York+City,NY,8/25/94,"Observation of egg blimp shapped object in front of World Trade Center Towers, NY.  Possibly a second sighting.",Egg,5 Mins +
44.4259092,69.0064234,Belfast,ME,8/24/94,Scared to death at a city park.  Overlooking Belfast Harbor,Triangle,20 min.
48.3808951,89.2476823,Thunder+Bay+(Canada),ON,8/22/94,I LOOKED UP IN THE DARK SKY AND SAW A BRIGHT WHITE LIGHT WHICH SLOWLY MOVED IN FRONT OF ME THEN STOPPED AND WAS TOTALLY SILENT.,Circle,20 seconds
39.600618,82.9460133,Circleville,OH,8/21/94,"On Sunday night, August 21, 1994, at 10:35p.m., a triangle-shaped craft was observed flying over U.S. Route 23 in front of the local Du",Triangle,20 seconds
32.6926512,114.6276916,Yuma,AZ,8/20/94,"Small red dot zoomed in at high speeds, came up to us. Saw the craft in slight detail.",Oval,1 minute
37.176447,94.31022279999999,Carthage,MO,8/20/94,Unidentified large flying object,Unknown,3 minutes
43.0125274,83.6874562,Flint,MI,8/20/94,"Object moved VERY slowly then accelerated incredibly fast from a stop, completely silent.",Disk,2-3 minutes
38.2975381,122.286865,Napa,CA,8/20/94,Bright light becomming glowing oval white light with two multi-colored lights zipping by at high rate of speed.,Light,2 seconds
40.0026176,74.0604141,Normandy+Beach,NJ,8/20/94,"clear skies, daylight,a triangle shaped object moving faster then the speed of sound without a any sound then divided into 2 seperate .",Triangle,4 seconds
36.0385079,111.8373843,Grand+Canyon+-+Navajo+Point,AZ,8/19/94,2 craft disappeared into space,Light,25 seconds
39.3545046,84.1271568,Morrow,OH,8/18/94,I could hit it with a baseball - the u.f.o. that is (a most VERY true story),Disk,10 minutes
38.2507515,122.9652768,Dillion's+Beach,CA,8/17/94,IT WAS NIGHT AND WE WERE WALKING ALONG THE BEACH WHEN FROM BEHIND THE SAND DUNES A GREEN FIREBALL HOVERED ABOUT 10FT OFF THE GROUND THE,Fireball,2-3 minutes
33.739744,116.41279,Rancho+Mirage,CA,8/15/94,An extreemly close sighting of a black/dark grey &quot;minivan&quot; shaped craft.,Rectangle,45 seconds
41.4915674,94.12298340000001,Earlham,IA,8/15/94,"one huge(4 storys high,150 ft. wide) craft, trailed by 2 small pods that looked about the size of a big car. The big ship made no noise",Rectangle,45 min.
41.8786731,83.57096399999999,Ida,MI,8/15/94,Low Flying Triangle over southeast MI in 1994.,Triangle,1 minutes
35.3732921,119.0187125,Bakersfield+(near),CA,8/15/94,"Saw bright light in distance, came towards my car rapidly, hovered and spun slowly parallel to my vehicle for about a minute and left",Triangle,5 minutes
35.3732921,119.0187125,Bakersfield+(near),CA,8/15/94,"http://www.nuforc.org/webreports/070/S70525.html  I saw this posting,and recalled a night in 1994.I was driving a moving truck with",Triangle,3 min
40.9584181,75.97464719999999,Hazleton+(near),PA,8/15/94,"Low-flying object had three large bright lights, made no sound and moved unlike any known conventional aircraft",Unknown,Three minutes
44.2910915,105.5022205,Gilette,WY,8/15/94,Green fireball seen over Southeast Wyoming in August? (possibly July) 1994,Fireball,3-5 Seconds
39.7392358,104.990251,Denver,CO,8/15/94,I saw  a  UFO  in August of 1994.,Other,5 seconds
32.735687,97.10806559999999,Arlington,TX,8/15/94,"Saw a disk a few years back, about junior year of high school...was standing in back yard...",Diamond,few minutes
39.5505376,107.3247762,Glenwood+Springs,CO,8/15/94,very bright light in the sky moving slowly made a sudden jump upwards and disipeared,Light,2 min
37.1895318,84.1177098,East+Bernstadt,KY,8/15/94,We saw a cigar craft chasing four army or airforce jets,Cigar,60 seconds or less
39.78172130000001,89.6501481,Springfield,IL,8/15/94,"An unknown craft gave off a loud, deep, oscillating, electro-acoustic, bass humming sounds.",Unknown,15min
41.7413561,105.9747251,Rock+River,WY,8/15/94,"Revolving lights seen in clouds south of Rock River, Wyoming.",Disk,2+ hours
35.2628402,116.6846351,Fort+Irwin,CA,8/10/94,"Yellow-Orange object in sky north of Baker California,  August 1994.",Unknown,3-5 minutes
35.7065217,81.2186933,Conover,NC,8/10/94,Unexplained hovering fire ball in the sky,Fireball,several minutes
52.4652071,113.9321561,Gull+Lake+(Canada),AB,8/10/94,"A black triangle spun out of a billowing line of smoke and stopped dead,then took off at incredible speed.",Triangle,4 seconds
45.6283921,68.2627986,Macwahoc,ME,8/10/94,in 1995 9months later I saw the exact same craft on an episode of unsolved mysteries except the dome on this craft was dark not illumin,Disk,3:00min
37.88224719999999,122.2336459,Grizzly+Mountain,CA,8/10/94,An erie and unexplainable experience on Grizzly Mountain.,Light,2hrs
47.9789848,122.2020794,Everett,WA,8/9/94,Triangular UFO with maroon lights over Everett Washington.,Triangle,15 minutes
42.2572059,83.6816382,Ann+Arbor/Ypsilanti,MI,8/7/94,Observed 3 objects flying in a tri-angular (or V) shaped pattern... I pulled my car over and got out of car to watch them pass...appear,Other,about 45 mins.
42.2411499,83.61299389999999,Ypsilanti,MI,8/7/94,"3 bell shaped objects seen flying in perfect V formation over Ann Arbor and Ypsilanti, Michigan",Other,45 minutes
42.2411499,83.61299389999999,Ypsilanti,MI,8/7/94,"3 objects,  amber in color,  bell shaped,  flew V or tri-angular formation,  no sounds emitted, flew very lo and slow.",Formation,45 min.
42.2572059,83.6816382,Ann+Arbor/Ypsilanti,MI,8/7/94,"Three objects..bright white lights on front, alt. red/white on rear..no sounds..travelling from west to east in tri-angular or v format",Other,45 minutes
40.5795317,74.1502007,New+York+City+(Staten+Island),NY,8/7/94,i know what i saw,Oval,several minutes
28.2716755,82.71954509999999,Port+Richey,FL,8/7/94,Silver Egg Shaped craft,Egg,15 seconds
34.8697395,111.7609896,Sedona,AZ,8/4/94,Fire fight in the sky,Sphere,five minutes
31.2826685,86.2555067,Opp,AL,8/4/94,Witnessed a Dark Circle moving North to South - with what may have been a Light shining Upwards.,Circle,5 seconds
40.7607793,111.8910474,Salt+Lake+City,UT,8/4/94,Cylinder of motionless lights in the sky seen over mine,Light,1 hour
39.0464066,74.76436079999999,Stone+Harbor,NJ,8/1/94,"Glowing green light came up right side of moving car, stayed even then made sharp right turn 90 degrees, took off.",Light,1 minute
42.5083482,89.03177649999999,Beloit,WI,8/1/94,Triangular shape obscures starlight as it moves across the night sky,Triangle,45 seconds
32.715738,117.1610838,San+Diego,CA,8/1/94,Flashing Orange Lights accelerate with each jump and were parallel to each other,Flash,30 seconds
37.2358078,121.9623751,Los+Gatos,CA,8/1/94,"it was very fast.  yellow, green, yellow, red, blue li ghts",N/A,14300
43.6502046,79.9036236,Georgetown+(Canada),ON,8/1/94,high bright red light fast moving,Light,20 seconds
47.48287759999999,122.2170661,Renton,WA,8/1/94,Man repts. seeing 2x large ships hovering in night sky while using Russian-made night binoculars.,N/A,N/A
39.7758467,82.7562895,Bloom+township,OH,8/1/94,saw 3 lights flashing in country sky,Light,5-10 seconds
47.2232314,117.0721213,Tekoa,WA,8/1/94,((HOAX??))  With out a shaddow of dought.,Triangle,5 seconds
35.732652,78.85028559999999,Apex,NC,7/27/94,"3 egg shaped yellow crafts seen in the sky by 12-15 witnesses, hovers for 15-20 minutes then vanishes!",Egg,15-20 minutes
32.715738,117.1610838,San+Diego,CA,7/25/94,rectangular space ship with large recessed lighting underneath  the space craft was hovering over the clouds moving in a circular motio,Rectangle,SEA PORT VILLAGE
39.6528654,78.7625185,Cumberland,MD,7/24/94,I was in my front yard with some of my children and one friend of my children.  I remember seeing 2 of the brightest lights on this obj,Unknown,5-10 minutes
42.1428521,77.05469029999999,Corning,NY,7/23/94,"Triangle UFO above Corning, NY.",Triangle,0:05
49.7275202,112.6179093,Coaldale+(Canada),AB,7/22/94,"My cousin and I were walking home after a late fishing trip. We turned down a road that reconnected with the river, leading into town. ",Oval,15 mins.
39.2333935,84.1613239,Goshen,OH,7/21/94,Triangle shaped craft on state route 28 at the Garrison Spurling rd intersection,Triangle,5-10 min
43.431646,103.4743625,Hot+Springs,SD,7/21/94,Two silent stars hover; vanish when jet nears,Light,ten minutes
47.1301417,119.2780771,Moses+Lake,WA,7/20/94,report of object witnessed by daughter many years ago,Triangle,not sure
41.4281979,72.084541,Gales+Ferry,CT,7/17/94,Large Triangle craft flew over pool making no sound at high rate of speed,Triangle,5 minutes
34.2438963,116.9114215,Big+Bear+Lake,CA,7/17/94,"Dark, absolutley silent, exceptionally fast craft streaks across night sky over San Bernardino Mountains/Desert (CA) [~1994]",Triangle,~4 seconds
53.9170641,122.7496693,Prince+George+(Canada),BC,7/15/94,I was a tree planter going from Prince George to Fort Nelson (the 1st time) in July 1994. The time was between 11:00pm-12:00am. There w,Light,minutes/ twice
45.3473925,80.03478299999999,Perry+Sound+(Canada),ON,7/15/94,What happened in almost 3 hours of missing time?,Other,4 hours
32.2593146,90.4225951,Raymond,MS,7/15/94,"2 goose shaped, lear jet sized craft at tree top level",Other,3-4 secs
41.2459149,75.88130749999999,Wilkes-Barre,PA,7/15/94,"I was out for a walk, when a ball of light came out of the north to the south and and changed direction straight upwards and reversed",Light,5-8 sec.
25.9564812,80.1392121,Aventura,FL,7/15/94,Three egg-shaped objects drifting over Aventura Mall,Egg,1-2 minutes
43.853734,70.5620952,Sebago+Lake,ME,7/15/94,Bright silent lights above lake,Light,4mins
43.66293839999999,116.6873596,Caldwell,ID,7/15/94,Copper Triangular UFO hovers over field then disappears in 1994,Triangle,5 minutes
38.7209454,75.07601369999999,Rehoboth+Beach,DE,7/15/94,"Sphear, white with concave and convex &quot;windows&quot; daylight with binoculars",Sphere,1 minute
45.5228939,122.989827,Hillsboro,OR,7/15/94,"Working in my garden, looked up and saw a cigar shaped craft proceeding south.  It was very high and I didn't hear or expect to hear an",Cigar,2 minutes
45.5228939,122.989827,Hillsboro,OR,7/15/94,"Driving down a busy street in Hillsboro,an acorn shaped craft caught my eye.  I looked at the road and it disappeared.",N/A,1:00 min
32.4059605,99.4936912,Clyde,TX,7/15/94,U.F.O. sighting which is unknown to me what I was seeing but it was very bright and round like the moon.,Circle,2 minutes
36.1699412,115.1398296,Las+Vegas,NV,7/15/94,I told the 911 Operator that i was looking at a &quot;huge black triangle&quot;.,Triangle,6-7 mins
32.8339546,109.70758,Safford,AZ,7/15/94,"July 1994 Safford, Ariz. 3A.M. Bright Sphere with Gas-like contents moving in circular motion Sphere itself motionless.",Sphere,20 Min.
35.75467320000001,118.4253627,Kernville,CA,7/15/94,Bright Fire ball heading north over the mountains,Fireball,10 seconds
33.7222445,116.3744556,California+desert,CA,7/15/94,UFO IN THE CALIFORNIA DESERT,Triangle,10 mins
32.659175,116.099851,California+desert+(Interstate+8),CA,7/15/94,I WAS A TRUCK DRIVER BACK THEN RUNNING WEST COAST TEAMS; MY PARTNER WAS IN THE BUNK SLEEPING AT THE TIME. IT WAS A VERY HOT DAY IN THE,Triangle,10 mins
41.1464852,74.7523874,Branchville,NJ,7/14/94,"2 horizontal lines - 3 top, 4 under zigzag type.  all 7 of us saw the lights as a different color",Circle,5 min
34.8790492,76.9013301,Havelock,NC,7/14/94,all in all i  saw a gray/silver ship that i could only see a triangleish part of.,Unknown,.5 minutes
45.2622655,122.6921006,Canby,OR,7/13/94,OR Air Nat. Guard Publ. Affairs Officer relays past sighting:  Citizen reports sighting obj. &quot;size of football&quot; in sky.,N/A,N/A
38.1503113,92.61796210000001,Osage+Beach,MO,7/12/94,Bright Object in sky that appeared to be falling then stopped split into two object then back to one then sped off.,Changing,5-7 minutes
41.2872723,84.5535617,Sherwood,OH,7/12/94,"I saw 2 unidentified objects, one chasing the other, watched them for 6 minutes, then were gone.",Unknown,5-7  minutes
37.9715592,87.5710898,Evansville,IN,7/12/94,"Small,bright(white),fast,and round",Circle,N/A
40.6781784,73.9441579,New+York+City+(Brooklyn),NY,7/11/94,"I just turned around for 1/2 a second, and it was GONE!!",Disk,5--7 seconds
44.2311717,76.4859544,Kingston+(Near)+(Canada),ON,7/10/94,hovering craft,Circle,5 mins
41.2844933,84.3557802,Defiance,OH,7/10/94,White light shining down like a spot light then zipping back and forth and upward.,Light,5 to 10 seconds
33.8569506,117.1764723,Lake+Perris,CA,7/9/94,I saw a triangle shaped craft hovering over the lake with a very bright white light making a wobbleling spinning sound,Triangle,24:00
48.1807415,116.909365,Priest+River,ID,7/8/94,Classic saucer with colored lights circling the rim; stationary for a long time so we got a GOOD look!,Disk,90 mins or so
37.7306054,88.9331256,Marion,IL,7/4/94,Going for a walk by Lake of Egypt power plant.,Triangle,5 min to 10
42.148553,80.03515399999999,Erie+(over),PA,7/3/94,"I WAS A FLIGHT ATTENDANT WORKING A DELTAS FLIGHT FROM CINNINATTI, OH, TO BUFFALO, NY.",Rectangle,5 TO 10 MINUTES
39.2333935,84.1613239,Goshen,OH,7/1/94,"Fleet of UFOs over Goshen, Ohio...Summer 1994",Triangle,30 mins
32.8000546,116.2841835,Ink-O-Pah,CA,7/1/94,Until I find my original details and drawings here is the picture of the hills so you can understand what my son and I are referring to,Other,25 min
42.266757,72.66897999999999,Easthampton,MA,7/1/94,"Close encounter with hovering black triange, fighter jets chased it away!",Triangle,12 minutes
40.79894729999999,81.378447,Canton,OH,7/1/94,The Metalic Orb that's as reflective as a mirror and moves like nothing I've ever seen,Circle,2 minutes
37.0891143,122.0863528,Ben+Lomond,CA,7/1/94,"Multiple lights, very distant, moving and turning rapidly, playing and dancing together for 45 min+",Light,45min
39.768403,86.158068,Indianapolis,IN,7/1/94,"A multi-titled, multi-colored possibly foursided pyramid seen before I entered 2nd grade, brother saw same thing years later.",Other,15 seconds
42.1034549,73.5499249,Copake,NY,7/1/94,"Distant, Strange, Moving/Dancing/Fighting? Lights",Light,5-10 minutes
33.8722371,117.8703363,Placentia,CA,7/1/94,"Mistaken for the moon, the light gave birth to others and &quot;danced&quot; in the night sky.",Light,30 minutes
33.0167076,86.3121433,Weogufka,AL,6/30/94,A NURSE BEING FOLLOWED BY A BRIGHT LIGHT ON HER WAY HOME FROM WORK ONE NIGHT.,Light,20 minutes
42.1014831,72.589811,Springfield,MA,6/30/94,Missing time with triangular craft.,Triangle,20 minutes
37.6656527,82.7715486,Prestonsburg,KY,6/30/94,Wedge shaped UFO with no sound and not lights traveling very slowly over the highway.,Chevron,45 seconds
34.0522342,118.2436849,Los+Angeles,CA,6/30/94,Exploding orb mimicking a firework explosion without sound then coming back together.  ((NUFORC Note:  Possibly an adv. display?  PD)),Sphere,15 minutes
41.3661614,81.8543026,Berea,OH,6/30/94,"We were standing in the backyard, and it waas dark out,about 7:00pm. Then we saw this large object slowly fly by.And as it was flying b",Rectangle,N/A
30.080174,94.1265562,Beaumont,TX,6/30/94,"I was on a table and could see my feet and it seemed that I could see OLD solid wall facing me.An unseen entity,( it felt small,",N/A,Not sure
40.8447819,73.8648268,New+York+City+(Bronx),NY,6/30/94,"Object seen moving very fast,and was moving sideways about a 90 degree at top speed,it had three or four orange color glow ports at tai",Triangle,3 minutes
43.3296298,105.1396278,Dull+Center+(near+Bill)+(north+of+Douglas),WY,6/29/94,Lights in shape of &quot;radio tower&quot; flew north,Light,5 minutes
34.1808392,118.3089661,Burbank,CA,6/26/94,A row of lights in the night sky vanished after they split formation.,Light,1min.30sec.
44.1070945,69.7242215,Dresden,ME,6/23/94,dresden bog,Disk,5 minutes
33.9434624,118.2398249,Los+Angeles+(outside+of),CA,6/23/94,UFO's are attracted to me.,Disk,20-30 sec
43.5445959,96.73110340000001,Sioux+Falls,SD,6/21/94,Orange white round light seen by 2 witnesses,Sphere,5 min.
48.9390509,119.4356211,Oroville,WA,6/20/94,"White, Triangular shape",Triangle,2-3 min.
37.5407246,77.4360481,Richmond,VA,6/18/94,A bunch of us were playing B Ball and we all saw three OFOs lit up white.,Oval,2-3 minutes
40.4128551,74.307282,Old+Bridge,NJ,6/17/94,"silent, slow moving disc, with bluish green glow seen in old bridge NJ on june 17th 1994.",Disk,5 Min
40.79894729999999,81.378447,Canton,OH,6/16/94,Spotted a large reflective metal sphere observing heavy equipment. What was it !!!!!!!!!!!!!!!!!,Circle,08-seconds
41.1399814,104.8202462,Cheyenne,WY,6/15/94,"Star like object over F. E. Warren AFB, WY",Light,30 Seconds
46.0215872,114.1731427,Darby,MT,6/15/94,Stars moving in a straight line.,Unknown,5 minutes
43.65873089999999,123.3186987,Drain,OR,6/15/94,"Large circle of light in the sky flashes brightly, then shrinks to star size and zig-zaggs away.",Light,3-5 min.
47.3223221,122.3126222,Federal+Way,WA,6/15/94,"RE:Occurred : 6/15/1994 23:00 (Entered as : 1994 23:00) Reported: 7/13/2003 12:06:06 AM 00:06 Posted: 7/16/2003 Location: Drain, OR Sha",Unknown,20 seconds
32.3668052,86.2999689,Montgomery,AL,6/15/94,"A huge, very low, black triangle traveling at a very low speed and making a low hissing sound traveled directly over my home.",Triangle,10 minutes
39.1831637,76.6402449,Ferndale,MD,6/15/94,A well lighted object seen from my window...,Cylinder,24 sec.
38.6270025,90.19940419999999,St.+Louis,MO,6/15/94,Hi. Top of the day too you. I have been keeping these stories to myself for a long time.I think the time is right to tell someone.I,Triangle,1:oo min
27.7301797,82.6307869,Coquina+Key,FL,6/15/94,"ADDITION TO REPORT:  Re: Posted sighting from Pinellas County, FL, for",N/A,N/A
35.2706372,86.1280417,Estill+Springs,TN,6/15/94,Close encounter with round white light,Light,5-7min
40.960112,82.787266,Auburn+Lake+Park,OH,6/15/94,5 light craft or crafts that made everyone but me go into a trans,Other,1 min to 30 seconds
41.9567124,86.27668179999999,Berrien+Center,MI,6/15/94,"I saw a huge, silent ,black, triangular shaped object float over the treetops of my home",Triangle,3 minutes
29.2108147,81.0228331,Daytona+Beach,FL,6/15/94,"I saw it coming home one night the same day of a Shuttle launch in Daytona Beach,Fl.",Other,5min/less
30.4382559,84.28073289999999,Tallahassee,FL,6/15/94,"I saw an egg like object out of the side of my eye while driving, but it changed speed and shot away with no transition time.",Egg,20 sec or more
26.9342246,80.0942087,Jupiter,FL,6/15/94,TIME LOSS extremly fast light traveling north,Light,8 hours
36.3007835,119.7829107,Lemoore,CA,6/15/94,"I saw a large, triangluar shaped object with off-white lights at each corner slowing moving about 3-500ft high in the sky.",Triangle,5mins
34.0258645,118.7797444,Malibu+(north+of;+on+Pac.+Coast+Hwy.),CA,6/14/94,red and orange lights pulsing in random sequence/ seemed like communicating,Cigar,5 min.
30.1927427,81.3706368,Sawgrass,FL,6/12/94,This is an addition to my previous report. Minor details I felt should be included.,Other,5 to 6 min.
30.1927427,81.3706368,Sawgrass,FL,6/12/94,A CLOSE RANGE SIGHTING OF A CRAFT WITH ANGLED DOWN SWEPT FORWARD WINGS WITH A LARGER CENTRAL BODY.IT HAD ONE LARGE RED LIGHT ONTHE BOTT,Other,5to6 min.
42.3600825,71.0588801,Boston,MA,6/11/94,3 Red trianles,Triangle,30 sec
42.1130467,96.3564161,Macy,NE,6/11/94,"SMALL PIECES, TURNED COLORS, AND BROKE INTO THREE PARTS THEN SHOT ACROSS THE DARK NIGHT.",Fireball,1 MIN
43.1910906,96.00585300000002,Boyden,IA,6/10/94,A flash of bright light on a dark night.,Flash,1 second
41.5581525,73.0514965,Waterbury,CT,6/10/94,time stopped when the ship came.,Circle,?
43.49165139999999,112.0339645,Idaho+Falls,ID,6/8/94,"Strange, form-changing objects seen over Idaho Falls.",changing,10 min.
47.4473204,122.4598502,Vashon+Island,WA,6/6/94,Hovering close to my house.,Unknown,?
41.6524911,70.2881124,Hyannis,MA,6/5/94,boomerang sliver shiny shaped object,Other,1:00 min
33.4473361,84.1468616,McDonough,GA,6/5/94,I and two others saw a reddish orange ball of light with a tail traveling through the night sky under clouds while fishing.,Other,N/A
29.3013479,94.7976958,Galveston,TX,6/4/94,Previous Stealth sighting in Williamsburg area,Triangle,a few seconds
38.2009055,84.87328350000001,Lawrencbeurg,KY,6/1/94,Night time sigting of two objects hovering then streaking over horizon.,Oval,5 seconds
40.6259316,75.37045789999999,Bethlehem,PA,6/1/94,"UFO Close Enough To Throw Rock At It,  Makes No Noise In Bethlehem PA 1994",Triangle,6-8 min
37.1305012,121.6543901,Morgan+Hill,CA,6/1/94,Foothill Sightings,Disk,1 hour
37.68717609999999,97.33005299999999,Wichita,KS,6/1/94,"Circle lights in diamond formation, heading east then dispersing North, East and South.  Late evening. ((anonymous report))",Oval,1 minute
32.3668052,86.2999689,Montgomery,AL,6/1/94,I was coming back to my college dorm at Auburn University at Montgomery -AUM (after grocery shopping one night) and I saw &quot;something&quot; h,Triangle,2 minutes
36.1699412,115.1398296,Las+Vegas,NV,6/1/94,Black triangle seen in 1994 over Las Vegas. 911 called.,Triangle,8 minutes
41.6667779,70.1847413,South+Yarmouth,MA,6/1/94,"Very cloudy night, seeing bright light behind clouds and seeing many transparent green spheres shooting out from the clouds.",Light,6 minutes
40.8042674,74.012084,North+Bergen,NJ,6/1/94,I have seen a disk shaped object  in outerspace. It was a very calm and peaceful shade of florescent blue or soft powder blue light,Disk,20 seconds
32.3668052,86.2999689,Montgomery,AL,6/1/94,triangular object with 3 bright lights moved east to west  across east montgomery over the v.a. hospital.,Triangle,2-3 hrs
32.1656221,82.9000751,Georgia,GA,6/1/94,Multi-colerd well defined beam or flash,Flash,2seconds
36.72805830000001,108.2186856,Farmington,NM,6/1/94,Triangular object seen in Farmington .,Triangle,2 minutes
36.2030064,119.08816,Lindsay,CA,6/1/94,floating spheres or huge orbs in sky radiating one kind of light white light .,Sphere,about 3 minutes
47.03426289999999,122.8231915,Lacey,WA,6/1/94,Large carrier escorted by military copters over Puget Sound area.,Rectangle,30+minutes
32.3668052,86.2999689,Montgomery,AL,6/1/94,Strange object over Montgomery Alabama,Rectangle,5 min
43.9547284,86.28007869999999,Scottville,MI,6/1/94,A shape changing from round to disc which paced us for several minutes before speeding away. No sound.,Changing,5 minutes
41.9575285,88.0809036,Bloomingdale,IL,6/1/94,pulsing silver object in the daytime,Sphere,1-1/2 min.
37.2089572,93.29229889999999,Springfield,MO,6/1/94,round dull metal efo covered in piping on the bottom,Circle,2 mins
39.778699,84.052086,Dayton/Fairborn,OH,6/1/94,unexplained departure from atmosphere,Oval,total =15 sec
30.317144,92.04900959999999,Carencro,LA,6/1/94,"THE TRUTH, THE WAY, AND THE LIFE",Other,N/A
39.60677889999999,75.83327179999999,Elkton,MD,6/1/94,Call me crazy because I'd much rather be Crazy!,Unknown,N/A
44.9886537,101.2224805,Eagle+Butte,SD,6/1/94,I was driving and noticed people parked and looking in the sky. We watched these lights move slowly with no sound.,Formation,15 min
36.722263,86.57721769999999,Franklin,KY,6/1/94,Lady Drives Underneath A  Disk Hovering Over Highway,Disk,2 Minutes
41.5189413,83.8038284,Whithouse,OH,6/1/94,"i was watching a jet flying probaly 30,000 ft. then i saw a small tranlusent ball it looked smaller than the jet. it mooved all around ",Unknown,1min.
39.1637984,119.7674034,Carson+City,NV,6/1/94,I am still blown away to this day that nothing was ever reported about this event. My coworker and I were at the gas station early in t,Other,5 seconds
38.801953,94.4527294,Raymore,MO,6/1/94,4-5 lights &amp; 1 large ship 10-11 years ago. Did you see it?,Triangle,5-10min
33.1137419,94.16435369999999,Atlanta,TX,6/1/94,We saw a giant ball of light and lighting and some people like things moving around.,Other,4 hours
44.9535753,92.1735178,Wilson,WI,6/1/94,"At night, a group of about five independently-moving lights, changing directions instantly in straight paths.",Light,15 minutes
38.2234533,80.09450989999999,Marlington,WV,5/31/94,"Driving home at dusk,my wife and I saw a saucer shaped craft fly directly overhead at tree top level,the craft had a circle of lights o",Disk,2 min.
38.5815719,121.4943996,Sacramento,CA,5/26/94,A large triangular shaped craft passed over our car while at a stop sign on an empty street,Triangle,5 min.
44.0581728,121.3153096,Bend,OR,5/23/94,it came up to us as fast as it left us and shined us hard with white/blueish lights. lots of energy felt...and wind,Disk,3.5 hours
40.7544843,86.3566659,logansport,IN,5/22/94,it was daytime and i know what i saw,Disk,2 min
40.44062479999999,79.9958864,Pittsburgh,PA,5/20/94,1.What I saw was a series of lights flashing left to right up and down.I would say it was 100 meters away from my bedroom window.It fle,Oval,12 seconds
37.0430812,100.920999,Liberal,KS,5/20/94,2 matalic spears connected to each other hovered in the southern sky for about 15-20 min.,Sphere,15-20 min
38.8986513,92.1235162,Millersburg,MO,5/17/94,Strange lights in Millersburg,Light,45mins-90mins
29.267464,97.76444289999999,Nixon,TX,5/16/94,It was late at night and we were waiting for a friend to come out of a house. While we were waiting we saw the object appear from our e,Disk,N/A
52.1332144,106.6700458,Saskatoon+(Canada),SK,5/15/94,"streams of light and triangular lights seen over Saskatoon, SK.",Light,2 hours
34.945574,111.6401551,Munds+Park+(west+of),AZ,5/15/94,V-shaped w/ 5 amber colored lights on the bottom,Chevron,appox. 20 min.
39.4748693,118.7770407,Fallon,NV,5/15/94,"USN trained weather observer sighted 3 &quot;solid&quot; colored lights, two red, one white, moving south to north silently and periodically&quot;rock",Light,45 seconds
32.792,115.5630514,El+Centro,CA,5/15/94,Huge triangle being followed by an F-16 in the california desert..,Triangle,10 mins
41.6819935,85.9766671,Elkhart,IN,5/15/94,"I saw 6 spherical objects, silver or chrome in color. They were circling around eachother very close and at a high rate of speed.",Sphere,1 to 1.5 minutes
35.8243208,78.3147199,Zebulon,NC,5/15/94,"Gigantic flat black ship with molded rooms on bottom and tubes leading to each room seen in Zebulon, North Carolina.",Other,About 2 Minutes
45.5230622,122.6764816,Portland,OR,5/15/94,While in light aircraft observed object below and behind follow in a race track holding pattern. Observed changes in heading altitude a,Sphere,10 minutes
31.0947092,81.7245535,Waverly,GA,5/14/94,LARGE OBJECT ON GROUND WITH BILLBOARD SIZE LIGHTS STROBING.,Oval,N/A
44.5459679,69.6203137,Winslow,ME,5/12/94,fast moving high altitude pulsating disc,Disk,1 min
44.566525,120.153341,Mitchell,OR,5/12/94,Two men observed a blue/white object streak down and disappear behind a nearby ridge. Cast light.,N/A,2 sec.
40.6781784,73.9441579,New+York+City+(Brooklyn),NY,5/11/94,I observed a round black object pass in front of the moon through my telescope.,Circle,10-15 seconds
44.6336096,86.23453959999999,Frankfort,MI,5/10/94,Large flashing light extending down from sky to lake Michigan.,Unknown,30 minutes
33.7700504,118.1937395,Long+Beach,CA,5/7/94,I observed the Craft at a close enough distance to know it was not anything man made,Oval,15-20 minutes
33.6189101,117.9289469,Newport+Beach+(Near),CA,5/5/94,saw what I first thought was a comet or some other object. It looked like a falling star....it was very high up.  I watched the object ,Flash,five seconds
43.2311794,76.30076389999999,Phoenix,NY,5/5/94,It  had my head in a vice-like grip and was &quot;reading&quot; me.,Unknown,5 minutes
46.480562,67.42209500000001,Glassville+(Canada),NB,5/2/94,"My Dad and I were driving down the street when I looked up and saw it, it was huge, it had a triagular top and bottom with revolving li",Diamond,5 minutes
47.4941836,111.2833449,Great+Falls,MT,5/1/94,Ghost like bright sphere wobleing and hovering and folwoing me,Sphere,about 5 minuts
33.14238,116.121498,Ocotillo+Wells+(near),CA,5/1/94,Large stationary fiery ball,Fireball,4 hours
46.0980066,88.3340242,Crystal+Falls,MI,5/1/94,Multiple encounters over approximately 50 mile radius.,Triangle,1 hour or more
38.7145093,84.82272549999999,Glencoe,KY,5/1/94,Sphere hovering over pond.,Sphere,30 minutes
36.7810744,103.9695127,Capulin+Mountain,NM,4/30/94,"Globe shaped object decends at above normal speed, makes impossible turn, and changes colors in flight.",Sphere,2
43.4553461,76.5104973,Oswego,NY,4/25/94,Rusty-red colored triangular shaped object with red lights came up over the shore of Lake Ontario and flew in a quick zig zag pattern,Triangle,1 minute
35.0853336,106.6055534,Albuquerque,NM,4/25/94,Glowing sphere makes figure eight around two people.,Sphere,3 seconds
35.0853336,106.6055534,Albuquerque,NM,4/24/94,I was on my way down from the Sandia Mountain peak ( on a tramway) when I saw a bright orange flash and an ornange ball of light speed ,Sphere,2-3sec
43.7315479,79.7624177,Brampton+(near+Toronto)+(Canada),ON,4/23/94,"The whole north west sky lit up.  Near Dorsett Park, facing North west at 1:00am in the morning.  There were very few clouds in the sky",N/A,2min
28.5552719,82.3878709,Brooksville,FL,4/20/94,Huge soundless orangish/greenish hovering  ball of light that shoots out sparks.,Light,3 minutes
36.8529263,75.97798499999999,Virginia+Beach,VA,4/19/94,"I say almost disk shaped because the edges did not come to a point but were straight, could have been cigar shaped at an angle.",Disk,3-4 minutes
43.1535728,93.20103669999999,Mason+City+(south+of),IA,4/16/94,"I was going south on I35 in a Greyhound bus in northern Iowa. It was early in the am. and i was just sitting awake then suddenly, a ver",Unknown,1 min
34.5400242,112.4685025,Prescott,AZ,4/15/94,rectangular object and sound of object.,Rectangle,3 minutes
28.6436321,82.34021179999999,Brooksville+(Withlacoochie+Forest),FL,4/15/94,"Three witnesses saw a very large, chevron-shaped, black or gray object with read lights around the edges.",Chevron,20 minutes
39.60677889999999,75.83327179999999,Elkton,MD,4/15/94,The UFO had Orange and Yellow Lights. 500 Lights On Object0: Yes,Other,1-3 Minutes
34.315134,117.3552154,Summit+Valley,CA,4/14/94,lime green disk shaped and tranparent with no lights or any other noticeable markings,Disk,5 minutes
38.2526647,85.7584557,Louisville,KY,4/11/94,triangular UFO/ Missing time,Triangle,not known
31.7721106,91.8215177,Harrisonburg,LA,4/11/94,"large, well-lit saucer passes only a hundred feet above house",Disk,30 seconds
36.9922768,91.96987419999999,Willow+Springs,MO,4/10/94,"Huge Triangular Object  after dusk seen with lights outling the perimeter, and a bright light in the middle .",Triangle,20 to 30 min
42.3861485,82.9118591,Grosse+Point,MI,4/9/94,"Woman reports seeing brilliantly bright, &quot;Kelly green&quot; orb near her home in night sky.  Disappeared to west.",Light,N/A
41.4825947,73.4095652,Brookfield,CT,4/7/94,"Large, bright object crested over NW horizonmoving very fast, my friend and I both sawthe object, and another of my friendsreported sig",Light,00:00:30
42.245869,84.40134619999999,Jackson,MI,4/7/94,"Small light seen in jackson, michigan",Light,3-4 min.
42.3861485,82.9118591,Grosse+Pointe,MI,4/6/94,Green light moving at really high speeds crosses night sky and disapears,Light,3 to 5 seconds
38.5449065,121.7405167,Davis,CA,4/6/94,bright light in the sky a real close encounter.,Cigar,"15 ,20 min."
29.28898869999999,98.64478489999999,Von+Ormy,TX,4/4/94,"Summary of San Antonio MUFON investigator trainee's Von Ormy, Texas UFO investigation",Other,?
26.0112014,80.1494901,Hollywood,FL,4/4/94,For NUFORC:  this message is for contact info on orange orbs in Broward County Florida.  I thought the witness section was not for cont,Circle,N/A
26.0112014,80.1494901,Hollywood,FL,4/4/94,Orange Orbs in Broward County Florida.,Circle,2 hrs
38.759642,123.0915605,Lake+Sonoma,CA,4/3/94,While fishing on Lake Sonoma my friend and I saw two lights in the trees.  We were on a boat in the center of the lake.  The lights wer,Other,1hour 10 min
35.1424671,119.4565078,Taft,CA,4/1/94,"White light seen at 10:30 pm traveling from NW to SE at very high rate of speed.Slows momentarily to beam down conical light, then resu",Light,15 seconds
41.2804112,73.87147519999999,Cortlandt+Manor,NY,4/1/94,circular craft hovered emitting green and red.,Disk,5-7 Minutes
40.6214551,79.15253489999999,Indiana,PA,4/1/94,we saw a saucer shaped object with a halo around it behind it followed three jets with after burners engaged colors appeared to be blue,Disk,3-10 sec
44.2949636,93.268827,Faribault,MN,4/1/94,Observed a green fireball flying 30 ft above and along a river. It flew parallel to the terrain and emitted a long tall w/smoke &amp; spark,Fireball,3-4 sec
33.4509353,98.924511,Megargel,TX,4/1/94,Missing Time: 10 minutes erased from my life,Unknown,10 minutes
37.8043637,122.2711137,Oakland,CA,3/28/94,I saw the lights in an arrow formation over San Francisco for 40 minutes and they didn't move an inch.,Light,40 minutes
33.3445684,89.0453397,Sturgis,MS,3/24/94,"They  could have been traveling by power from magnetic fields, they  appeared to slip through the sky.",Disk,4 minutes
43.0125274,83.6874562,Flint,MI,3/18/94,"In the pre-dawn hours of the above date I encountered a large, triangular craft hovering silently about 100 foot above the freeway.",Triangle,5 minutes
35.5950581,82.5514869,Asheville,NC,3/15/94,Seen craft very close hovering over telephone poll not moving or making a sound.,Disk,30 min
34.46064399999999,86.23331499999999,Columbus+City,AL,3/15/94,"Large Black Cylinder Flies Above Mountain Lakes Near Guntersville, Alabama",Cylinder,3 seconds
36.0041223,120.1290272,Avenal,CA,3/15/94,"my wife and I were at a ranch late at night talking with friends about 4 or 5 miles from avenal , When we notice several small lights z",Unknown,40 or 50 minutes
36.8252277,119.7029194,Clovis,CA,3/15/94,Beam of Light near Strawberry Field,Light,5 minutes
33.4151843,111.8314724,Mesa+(north+of),AZ,3/10/94,"I saw a black craft floating in the air, no noise or anything.  When I got out of my car to see what was going on, it left.",Triangle,90 seconds
47.0378741,122.9006951,Olympia,WA,3/10/94,"Two oval shaped, firefly-like, yellow glowing craft, flew overhead at great speeds with erratic movement.",Oval,10 seconds
33.9791793,118.032844,Whittier,CA,3/10/94,it was giant I saw it with bright lights millions of lights it 2 feet above our car. I saw a windsheild in it through it I saw an objec,Circle,5:00
42.9133602,85.7053085,Wyoming,MI,3/10/94,disk shaped looked to be black with colored flashing lights on the bottom,Disk,1 min
42.3086444,83.48211599999999,Canton,MI,3/9/94,UFO Encounter in Canton Michigan.,Unknown,2 min
42.7875235,86.1089301,Holland,MI,3/8/94,UFOs observed by multiple witnesses including a police officer and confirmed on radar at the NWS,Formation,unsure
47.6627771,122.3138767,Seattle+(University+District),WA,3/8/94,"Young man and girlfriend witness an intensely bright object streak across the night sky, followed by a second object.",Fireball,5 seconds
38.5733155,109.5498395,Moab+(south+of),UT,3/3/94,Rotating triangle of lights south of Moab.,Triangle,one full minute
42.6525793,73.7562317,Albany,NY,3/3/94,A repeat and endless loop of an object downtown suny albany campus.,Rectangle,6 hous
38.5736176,97.67448379999999,Lindsborg,KS,3/2/94,Black Triangle with Slightly Askew Leading Edge,Triangle,10 seconds
39.8366528,105.0372046,Westminster,CO,3/1/94,I was riding in a car heading south on Wadsworth Blvd toward 92nd in Westminster. I looked west at the sunset and abov,Circle,30 seconds
33.6971468,117.185294,Menifee,CA,3/1/94,Sun City / Menifee UFO sightings in 1994,Unknown,4 months
42.887535,77.2816984,Canandaigua,NY,2/27/94,It was rectangular and had 6 red lights on each side.,Rectangle,5 minutes
44.5895244,75.68428580000001,Brockville+(Canada),ON,2/24/94,"I watched it for about 15 minutes.  It seemed bigger than a plane, circular and it changed colour;  white to red then green then back",Oval,~ 15 minutes
36.3082598,86.6233614,Shackle+Island+community+of+Hendersonville,TN,2/22/94,Object viewed under magnification observed lights/crafts entering and leaving illuminated object;,Changing,40 minutes
34.5199402,105.8700901,New+Mexico,NM,2/21/94,flashing bright lights following 60mph auto at its level,Light,10min
43.653226,79.3831843,Toronto+(Canada),ON,2/20/94,"Saw a metallic, daylight disk that left a wake in the clouds.",Disk,Less than 10 seconds
49.2827291,123.1207375,Vancouver+(Canada),BC,2/15/94,"1994 Sighting in Vancouver, B.C.",Triangle,2 minutes
37.7525922,83.0687816,Salyersville,KY,2/14/94,"i was driving into salyersville from south to north maybe an 1/8 of a mile from rt.7 and u.s. 460 intersection, when a dark gray triang",Triangle,1:00 min
46.4004089,117.0011889,Lewiston+(Near),ID,2/10/94,Triangular craft hovering over bridge then moving downriver.,Triangle,5 minutes
63.6941667,170.4788888,"Savoonga,+St.+Lawrence+Island",AK,2/1/94,The object was about 200 feet off the ground. There was absolutely no sound. It stayed in one spot in the air without moving.,Light,6 minutes
39.6295554,90.45591379999999,Illinois+(rural),IL,2/1/94,"A strange light on the side of a hill in a fog bank, that was the only fog for miles.",Light,2 minutes
32.7650783,117.0220495,Spring+Valley/LaMesa,CA,1/25/94,"Fireball descending towards ground, changes trajectory, streaks away with giant tale behind",Fireball,5-7 minutes
34.0522342,118.2436849,Los+Angeles,CA,1/24/94,my friend and Isaw saucer craft -silent -eight glowing orbs underneath-with colors-traveled overhead,Disk,5 minutes
45.3044062,97.0364661,Summit,SD,1/19/94,Large Silver Disk explodes over SD Antenna Field....,Disk,10 minutes
43.3246863,95.149996,Milford,IA,1/18/94,The objects hover to the west changing diffrent colors and disaprearing after 8:00,Flash,1 hour
34.0522342,118.2436849,Los+Angeles,CA,1/17/94,Fire ball after northidge quake .,Fireball,few seconds
34.469994,118.1967418,Acton,CA,1/15/94,it was like they knew i was watching them.,Unknown,30 mins
39.6302643,106.0433518,Dillon,CO,1/15/94,"ufo activity at lake dillon,colorado",Sphere,5 hrs
34.285558,118.8820414,Moorpark,CA,1/14/94,Silver Sphere in Southern California,Sphere,appx 5 min
40.6110589,111.8999353,Midvale,UT,1/14/94,"In Midvale, Utah in the early morning",Disk,1 min
29.1385785,83.03512119999999,Cedar+Key,FL,1/12/94,Huge bluish black delta  wing 50 feet or less  over my head while deer hunting from my tree stand in FL !!,Chevron,5 minutes
41.9436071,75.5991789,Susquehanna,PA,1/4/94,Large white light moving fast  above car turns into Triangular UFO and hovers over car for 5 minutes,Triangle,5 minutes
35.0437038,106.5136218,Albuquerque+(30-60+miles+west+of+city),NM,1/3/94,"Saw triangular craft approaching from horizon from the N.W., approached slowly, silently, and low to the ground.  Passed directly over ",Triangle,3-4 minutes?
40.5865396,122.3916754,Redding,CA,1/1/94,object  came  from  mountian  to  our  car  .,Triangle,all night
41.1134289,74.2454254,Ringwood,NJ,1/1/94,"Strange light, stranger disappearance",Unknown,4minutes
26.1224386,80.13731740000001,Fort+Lauderdale,FL,1/1/94,"NewYears between 3am and 4am. We were leaving work, heading to my truck when I looked in the clear sky to the north, We seen flat black",Unknown,2/5min
30.5305987,84.5448693,Interstate+10,FL,1/1/94,slow moving craft with 6 small green lights one side facing us.Moving slowly almost touching tops of trees.Making no sound and with no ,Triangle,3 min. aprox.
21.3069444,157.8583333,Honolulu,HI,1/1/94,Strange sights in the sky over Oahu from about 1994 to 2004 seen by long-time resident,Light,varies
33.9191799,118.4164652,El+Segundo,CA,1/1/94,"What I'm seeing, please help.",Other,30 minutes
