lat,lng,city,state,date,specs,shape,duration
39.114053,94.6274636,Kansas+City,KS,11/15/60,"Two witnesses see ball of light come over horizon, then speed up and disappear before their eyes.",Unknown,5 Min. (three occasions)
47.2147934,122.1701765,Sumner+(Lake+Tapps+area),WA,11/11/60,Sphere with Spikes over Lake Tapps traveling West to East in 1960,Sphere,30 seconds
40.7556561,73.5876273,Westbury,NY,11/2/60,Father Mother and son in car stopped in middle of street to see a saucer with lights around the rim hovering above their house.,Disk,1 minute
44.7677424,93.27772259999999,Burnsville,MN,10/18/60,"No sound, Nothing.....The light that propelled it left a steam.nothing more.I could only see the craft because i could see",N/A,1
21.3996475,157.7973653,Kaneohe,HI,10/10/60,"AS a Marine 1st Lt. flying an FJ4B fighter/attack aircraft on a solo night exercise, I was at 50,000' in a &quot;clean&quot; aircraft (no ordinan",Light,15 minutes
54.1230722,114.4016742,Barrhead+(Canada),AB,9/15/60,"HBCCUFO CANADIAN REPORT:  Daddy, there is a stop light sitting in the grain field.",Other,20 minutes
40.4162842,120.6530063,Susanville,CA,9/15/60,"Three craft in formation, high altitude, lights constant across sky - unlike aircraft running lights which blink and &quot;hide&quot;",N/A,5-6 minutes
47.6062095,122.3320708,Seattle,WA,9/15/60,Triple disc sighting prior to dusk with a light beam and possible healing. Witnessed.,Disk,"2 min. for me, longer for"
36.548434,82.5618186,Kingsport,TN,9/15/60,"An orange, circular craft drifted over the house from east to west shortly after sundown.",Circle,5 Minutes
37.68717609999999,97.33005299999999,Wichita,KS,9/10/60,MADE  ONY  A  HUMMING SOUND EVEN WHEN  IT TOOK OFF.,Oval,20 min.
42.88644679999999,78.8783689,Buffalo,NY,9/5/60,Precise movements of a &quot;craft&quot; apparently observing a large tank like structure.,Oval,3 minutes
46.8791756,102.7896242,Dickinson,ND,8/28/60,There was no sound no air movement and it moved off very fast .,Circle,2 min
40.44062479999999,79.9958864,Pittsburgh,PA,8/20/60,A white sphere 5-7 ft. in diameter was viewed by about 35 people going form a stationary position to high rate of speed.,Sphere,about 5min.
33.7428471,118.2614332,Long+Beach+(Terminal+Island),CA,8/17/60,"9/17/1960 -21:10 hours-Terminal Island, Califronia, Four  Crescent over LBNSY- observed 4-5 seconds above broken clouds",Other,4-5 seconds
54.1230722,114.4016742,Barrhead+(Canada),AB,8/15/60,HBCCUFO CANADIAN REPORT:  five objects hovering over a power sub station.,Light,not given
42.279286,71.4161565,Framingham,MA,8/15/60,"The UFO over WKOX Framingham ,MA",Oval,20 min
42.4651421,71.0110473,Saugus,MA,8/15/60,at ten years of age we looked at each other and said &quot;that was no weather balloon !,Circle,5 min
46.9072222,121.0261111,Cottonwood+(near),WA,8/13/60,"The fact that whatever it was, was following ECHO the next night after it was seen by 100s of people in the sacremento valley",N/A,15 minutes
40.63788,74.4509863,Watchung,NJ,8/10/60,"Cigar shaped object, reddish brown that hummed overhead with hieroglyphics like writing in Watchung New Jersey.",Cigar,20 seconds
42.2231241,78.0344506,Belmont,NY,8/10/60,a bright light followed a slow zigzag path from the horizon to the zenith then made a right angle turn,Circle,15-20 minutes
43.294975,89.633128,Crystal+(N.+Wisconsin+Lake),WI,8/1/60,It was dark and then lit up. A huge white round object (flat?) moved at great speed and disappeared.This was the time when the ufo star,Circle,30sec
40.5773266,74.2282005,Carteret,NJ,8/1/60,"Cigar shapped object made no sounds, moved slowly overhead and then with tremendous speed vanished",Cigar,10 minutes
42.3600825,71.0588801,Boston,MA,8/1/60,Observed strange large disk like craft.,Disk,30 minutes
41.5647795,72.0619371,Taftville,CT,8/1/60,Saw a white saucer-shaped object hovering over church steeple in day time then  just faded away,Disk,1 min
40.6084305,75.4901833,Allentown,PA,8/1/60,Historical color video of major USA event shows presence of UFO,Cylinder,1 hour
34.09751,117.6483876,Upland,CA,7/30/60,"VERY BRIGHT, THE SIZE OF THE MOON!",Circle,.30
44.7246629,63.6908523,Bedford+(Canada),ON,7/17/60,Iridescent blue light passes over farmer at tree top level on a summer night in the early 60s,Disk,20-30 seconds
35.2219971,101.8312969,Amarillo,TX,7/15/60,Texas Panhandle UFO's,Diamond,1 hour +
35.3848841,77.9927651,Goldsboro,NC,7/15/60,"craft seen near Seymore-Johnson AFB, N.C., 1960",Sphere,2 minutes
36.7544778,121.765259,Pacific+Coast+Highway,CA,7/15/60,A bright dot high over the U.S. Pacific coast exhibiting rapid acceleration/deceleration and the ability to hover.,Unknown,~7 seconds
34.1008426,117.7678355,La+Verne,CA,7/15/60,"July 1960, Pomona Ca,  two yellowish orange spheres observed by numerous people that reported to the local paper.",Circle,30 min
36.1723944,94.1854702,Springdale/Fayetteville,AR,7/7/60,Concerning a formation of lights over Springdale/Fayetteville during the summer of 1960 or 1961.,Formation,10 minutes
42.9764027,88.1084224,New+Berlin,WI,7/4/60,"Large, slow moving craft, above the clouds, blinked out like a lightbulb before reaching the horizon",Circle,5 minutes
44.74951600000001,79.89219229999999,Midland+(Canada),ON,7/1/60,4 disc shapped crafts over Gerogen Bay ont.,Disk,17 minutes
45.5230622,122.6764816,Portland,OR,7/1/60,Stationary Lights Over Portland OR Around 1960,Unknown,15-30 min
42.3149367,83.03636329999999,Windsor+(Canada),ON,7/1/60,"Humming object with domed upper portion, flat bottom, numerous lights of multiple colors, 3 witnesses",Other,12-15 minutes
45.52151180000001,95.95221780000001,Stevens,MN,7/1/60,HIDDEN UNDERGROUND MILITARY BASES,Other,N/A
36.0145972,115.1171168,Unknown,NV,7/1/60,Real Evidence of UFOin the 60's,Disk,30 minutes
45.5230622,122.6764816,Portland,OR,6/30/60,Live TV broadcast from Portland OR in the summer of 1959 or 1960.,Disk,N/A
41.9589657,76.4331698,Litchfield,PA,6/30/60,When I was around 10 years old I was going to where my dad was baling hay on top a hill.My brother Glenn was with me and when we ca,Other,10 muntes?
37.1895318,84.1177098,East+Bernstadt,KY,6/21/60,The disc was about 30 feet across and moved silently; I was a five year old child. I was terrified and ran inside.,Disk,90 seconds
41.8781136,87.6297982,Chicago,IL,6/18/60,"AS I LYE IN THE NIGHT, MY EYES FOCUSED ON HEAVEN, FIVE DISCS SILENTLY PASSED OVER SOMETIME ROUND ELEVEN. THESE OVAL SHAPED OBJECTS GAVE",Oval,3  SECONDS
39.114053,94.6274636,Kansas+City,KS,6/15/60,Short visit!,Disk,15 min
39.2903848,76.6121893,Baltimore,MD,6/15/60,Three white lights flying in formation.,Other,5 minutes
47.4234599,120.3103494,Wenatchee,WA,6/15/60,"People came every Sunday night to see a formation of points very high in the sky, as they vanished one at a time.",Other,15 minutes
39.9368363,120.9471764,Quincy,CA,6/13/60,"A lighted object was silently descending vertically into the canyon, then stopped and hovered",Disk,several minutes
47.4941836,111.2833449,Great+Falls,MT,6/12/60,SAC at Malstrom AF Base not Concerned!,Formation,20 MINUTES
35.3521049,118.9448471,Barstow-Baker,CA,6/11/60,"Giant saucer crash in the mountains between Baker and Barstow, California.",Disk,3-5 minutes
39.9525839,75.1652215,Philadelphia,PA,6/10/60,"SPHERE 3 TIMES MOON SIZE, WITH MOVING COLORS WITH-IN IT",Sphere,3-4 SECONDS
28.3922182,80.60771319999999,Cape+Canaveral,FL,6/6/60,It was as if a huge ball of light zoomed down from the sky and just disappeared before my eyes.,Fireball,4 hours
33.7455731,117.8678338,Santa+Ana,CA,6/3/60,"Saucer shaped craft seen June 1960 over Santa Ana, California",Disk,5 minutes
47.6445386,122.6948697,Silverfdale,WA,6/1/60,UFO seen by 12 year old girl sleeping out near Trident Submarine Base,Changing,20 MINUTES
44.45888069999999,69.67776049999999,Vassalboro,ME,6/1/60,Multi experiences with unknown.,Oval,1-2 hr
42.1867052,86.26057759999999,Watervliet,MI,6/1/60,3 Saucers seen hovering in daylight; seen clearly enough to see the lights revolving around the middle,Disk,4 or 5 minutes
48.4284207,123.3656444,Victoria+(Canada),BC,6/1/60,"I was a teenager, 15 or 16 years old, at the time of the sighting.  I was standing at a bus stop, in the late afternoon.",Disk,Seconds
39.8717773,75.5913178,Chadd's+Ford,PA,6/1/60,"Fast moving, silent cylinder.",Cylinder,5 seconds
39.9313582,75.0671448,New+Jersey+(southern),NJ,6/1/60,Cigar shaped object dropped pieces of heated metal.  I acquired one of the pieces in 1962.  Photograph to follow.,Cigar,4 minutes
34.5794343,118.1164613,Palmdale,CA,6/1/60,Summer 1960 saucer with flashing lights (antenae?) hovered above Lilac View Street then shot straight up and out of sight.,Disk,5 minutes
38.5815719,121.4943996,Sacramento,CA,6/1/60,Brother sees ship and occupants...maybe more.......,Cigar,5 minutes
46.6020711,120.5058987,Yakima,WA,6/1/60,"Shaped like an old fashioned oil derick-about 100 feet tall-stationary-made of pure light.  We watched it,along with two or three other",Other,15 min
47.6062095,122.3320708,Seattle,WA,6/1/60,"OBJECT WAS OVAL IN SHAPE AND HAD MANY LIGHTS ON THE INSIDE PERIMETER. THE COLOR WAS LIGHT GREEN, LIKE THE OLD LUMINOUS WATCHES THAT GLO",Oval,5 seconds
39.4667034,87.41390919999999,Terre+Haute,IN,5/15/60,Light Bar in Clouds UFO,Other,5 Min.
32.2217429,110.926479,Tucson,AZ,5/1/60,"Lights only, no sound, moving across the night sky, then making a series of perfect right angle turns, like plowing a field.",Light,4-5 minutes
29.7604267,95.3698028,Houston,TX,4/1/60,Sharp right angle turn in flight direction after stopping in mid-flight,Other,N/A
29.7604267,95.3698028,Houston,TX,3/12/60,saw in sky made no noise lots of flashing lights observed with telescope,Triangle,3 hours
36.09985959999999,80.244216,Winston-Salem,NC,2/18/60,"It was on a Full Moonlit night, while snowsledding, a friend called to me and said , &quot;look Bill, what in the world is that?&quot;",Cigar,20 seconds
34.3528825,82.932087,Hartwell,GA,2/1/60,My father explained an event of a large cigar-shaped object in perfect flight,Cigar,Approx 30 to 45 seconds
44.9537029,93.0899578,St.+Paul,MN,2/1/60,"A cigar-shaped UFO glided down towards the earth at a 45 degree angle, but was lost in the ground clutter.",Cigar,3 seconds
36.595141,82.1888089,Bristol,VA,1/15/60,BURNING disc  sighting 1960,Disk,20 minutes
