lat,lng,city,state,date,specs,shape,duration
36.1539816,95.99277500000001,Tulsa,OK,12/31/96,"Cigar shaped object flew over our heads from NE to SW.  Had red, white, and blue strobe lights on it.  Made a high pitched whine as it ",Cigar,unknown
42.5750883,71.998133,Gardner,MA,12/31/96,I looked up and saw four circular objects flying in and out of each other. Then they all lined up in a row and took off quickly and dis,Circle,30 seconds
32.2217429,110.926479,Tucson,AZ,12/31/96,Craft was spotted hovering over the city.,Disk,15 minutes
38.92593970000001,79.8467349,Elkins,WV,12/30/96,"Man witnesses large, brilliantly bright, silver-white light, size of a full moon, passing overhead.  Obj. flashed, then disappeared.",N/A,90 sec.
38.6950335,92.3087977,Hartsburg,MO,12/29/96,"Relayed rept.:  2x men trapping witness silent, black triangular obj. overhead.  3-4 white strobe lights; blue&amp;red lights.  No sound.",N/A,5 min.
32.7562463,91.8723497,Bastrop,LA,12/29/96,"due south of bastropA bright light was seen in the sky, and was thought to be a star until it started moving. It moved back and for",Light,1 hour
38.1422839,122.3651983,Highway+37,CA,12/28/96,Young man called to rept. &quot;a ring of lights&quot; in the night sky between Sears Point and Vallejo.  (Facts unclear.  No return call.),N/A,N/A
27.5305671,99.48032409999999,Laredo,TX,12/28/96,"Fiery object falling, breaks into 2 pieces, each dart toward opposite horizons",Changing,10 seconds
42.2711311,89.0939952,Rockford,IL,12/28/96,Black Triangle about 75 feet width.,Triangle,20 minutes
32.8234621,97.1705678,Hurst,TX,12/28/96,I saw a brilliant white ball of lightmoving roughly straight downward very fastprobably about 1 mile away.  It disapearedbehind trees. ,light,about 1 second
34.0922335,117.435048,Fontana,CA,12/26/96,"Woman &amp; brother witness 3x peculiar hovering lights.  One of the lights extinguished, other two moved slowly behind nearby trees.",N/A,30 min.
60.10416669999999,149.4422222,Seward,AK,12/25/96,it was green hovering,Light,30 seconds
37.9346476,121.3116365,"Fresno/Stockton+(from,+to+Stockton)",CA,12/25/96,"Radio show call in, single object obsevred as a bright light, traveling at a high rate of speed in a SE direction from STCN to FAT, lig",Light,several minutes
34.7464809,92.28959479999999,Little+Rock,AR,12/24/96,"No Noise, No nothing except blurry lights,an extremly large object with such speed andmanuvirabilty,stopping and starting, hooveringfor",Light,10 minutes
40.2731911,76.8867008,Harrisburg,PA,12/24/96,Triangle w/ 1 light on each point.,Triangle,5 min.
39.5296329,119.8138027,Reno,NV,12/22/96,"Young man sees a very brigh &quot;ball of blue light&quot; out his window.  It looked like a &quot;single bubble of light, w/ 3-dimensional depth.&quot;",N/A,2 sec.
41.4047742,81.7229086,Parma,OH,12/22/96,"We just finished lunch and went back to work at the corner of Sarasota and Sun Haven Rd. Looking up in the sky, I noticed what appeared",Other,2 minutes
39.5296329,119.8138027,Reno,NV,12/22/96,I saw a HUGE ball like flash grow and then'erupt' while looking out of my windowfacing SE. It was not lightening. I love towatch the we,Other,3 seconds
41.0036719,80.34700900000001,New+Castle,PA,12/20/96,I looked up in the sky and there it was,Cylinder,60 seconds
46.7162136,122.9542972,Centralia,WA,12/20/96,Mysterious Red Light Seen Right Outside Bedroom Window,Unknown,30 seconds
47.6062095,122.3320708,Seattle,WA,12/19/96,"Man repts. black, round obj. passing from S to N below solid clouds in W sky. No lights, silent, smaller than moon. Aircraft landing S.",N/A,30 sec.
35.1859163,86.11220709999999,Winchester,TN,12/19/96,"This was the most usual sight I have ever seen, I swear to God.",Triangle,1 hour
36.6777372,121.6555013,Salinas,CA,12/18/96,"Man awakens, turns on TV.  Sees 3x prominent green lights in triangular formation through blinds. Outside, sees other strange lights.",N/A,3 min.
30.1658207,95.46126249999999,The+Woodlands,TX,12/18/96,Saw bright orange light (size of Venus)  with diffuse and changing orange haze 1/2 size of moon around central light.,Light,5 minutes
44.0520691,123.0867536,Eugene,OR,12/18/96,"Father and son saw a light at high altitude perform zig-zags, abrupt starts and stops, and 90 degree turns.I am 18. I was going to ",Light,1 hour
47.6062095,122.3320708,Seattle,WA,12/17/96,Seattle METRO bus driver on Hwy. I-5 sees blue-green obj. streaking E to W just above buildings in Seattle.  Thought it was close.,N/A,3 sec.
45.5230622,122.6764816,Portland,OR,12/17/96,"Multnomah Co. off. at traffic light sees obj. STREAK from W to E in SW sky.  2 min. later, sees identical event, same trajectory.",N/A,2 min.
45.4312294,122.7714861,Tigard,OR,12/17/96,"Man sees bright silver-white light in NNW sky descending at 45-60 deg. angle.  Very fast, very bright.",N/A,3 sec.
49.6706339,124.9037269,Comox+Bay+(Canada),BC,12/17/96,Woman repts. multiple witnesses saw &amp; heard blue/green that passed over WA &amp; BC.  Distinct explosion heard nearby.,N/A,4 sec.
48.7519112,122.4786854,Bellingham,WA,12/17/96,Man calls to relay reports heard on police radio regarding green &amp; blue object streaking across sky at 0615 hrs..,N/A,N/A
47.6062095,122.3320708,Seattle,WA,12/17/96,"Young man sees &quot;yellow tinged fireball with neon green tail&quot; streak from E to W in N sky.  Tail was curving down, and oddly green.",N/A,4 sec.
47.91862159999999,122.5542458,Hansville,WA,12/17/96,"Woman witnesses a blue-green ball of fire, 1/2 dia. of full moon, streak from E to W and intersect the N horizon in almost level flt..",N/A,3 sec.
47.6739881,122.121512,Redmond,WA,12/17/96,"Woman awakened by high-pitch buzzing.  Goes outside and sees large, very bright,circular disc w/ flat top hovering nearby. Frightened.",N/A,15 min.
46.5584421,122.2751046,Morton,WA,12/17/96,Man witnesses a large &quot;pool of green light&quot; streak across sky.  Size of moon.  Covered approx. 80 degrees arc in 4-5 seconds. Strange.,N/A,4 sec.
33.4669721,117.6981075,Dana+Point,CA,12/17/96,We saw a pinkish light moving in a south to north direction.  It traveled at a constant speed covering an approximately 110 degree arc ,Light,10 seconds
30.7686036,94.4154894,Woodville+(Outside),TX,12/17/96,"triangular shape, rounded on ends, 1 lg yellow/orange light on each corner of triangle",Triangle,30-40 sec.
26.1669711,80.25659499999999,Sunrise,FL,12/17/96,"We saw a comet like shape heading west to east very fast, Suddenly the comet tail dissapeared, than ignited twice then disapeared.O",Sphere,60-90 seconds
48.7519112,122.4786854,Bellingham,WA,12/17/96,"large egg shaped bubble, could see through it yet it was irredecent.  About the size of a large pickup truck. Vibrating yet silent",Egg,3 minutes
47.74481189999999,121.0890197,Stevens+Pass,WA,12/16/96,"2x skiers see  orange disc, then 2 others moving rapidly across sky.  1 of discs suddenly streaks off, then streaks back to formation.",N/A,N/A
47.9789848,122.2020794,Everett,WA,12/16/96,Boeing empl. sees peculiar green streak in E sky.  Headed S at VERY high speed.  Streak narrower than kitchen match at arm's length.,N/A,2 sec.
47.6587802,117.4260466,Spokane,WA,12/16/96,"rotating metallic chrome object  shining-intense ruby light , diamond/flat cone shape, stationary high altitude",Diamond,6min
35.2045328,89.8739753,Bartlett,TN,12/15/96,"On a December night,1996, I saw a cresent shaped U.F.O. >>>>>>>>   ) It was almost as bright as the moon but not as bright. I was looki",Other,5 seconds
41.4141172,73.3035651,Newtown,CT,12/15/96,"Strange craft appeared in sky , then zoomed away",Teardrop,1 minute
47.5301011,122.0326191,Issaquah,WA,12/14/96,"3x adults witness a &quot;long, narrow disc w/ very bright, cream-colored light&quot; over Tiger Mtn.  Draws  close to woman, pursues her.",N/A,6 min.
34.0686208,117.9389526,West+Covina,CA,12/14/96,"Father, 2 sons, neighbor witness gray disc pass directly overhead, pause, move off, and hover.  Moved EXTREMELY fast. Not a plane.",N/A,2 min.
47.4473204,122.4598502,Vashon+Island,WA,12/14/96,Young man witnesses a &quot;green gaseous&quot; obj. streak across the northwest sky going from N to S.  Very bizarre sight.,N/A,1 sec.
42.331427,83.0457538,Detroit,MI,12/13/96,"Mother driving w/ 3 children sees several craft in triangular pattern, which split suddenly. They pursue objs., &quot;catch&quot; 2x. Scared!",N/A,10 min.
40.9867609,75.1946248,Stroudsburg+(Stroud+Township),PA,12/13/96,Blue light faded to red with electrical sounding hum and then repeating.The light traveled from behind our home to the side lighting th,Light,under 2 min.
37.2936633,88.97534619999999,Karnak,IL,12/13/96,At about 8:00 at night I was sitting outside staring at the stars when I saw a streak of green light followed by an explosion.Right bef,Cylinder,N/A
34.2694474,118.781482,Simi+Valley,CA,12/13/96,A silver metallic object streaked across the sky in a northeast direction. It suddenly slowed to a complete stop before going straight ,Egg,4 min
36.0726354,79.7919754,Greensboro,NC,12/13/96,Very large ball of light. Looked to me as if the sun were moving through town.,Light,1-minute
33.368825,104.510062,"I-10,+Marker+174",NM,12/12/96,"Truck driver &amp; other trucks see 2x bright white lights, which split apart. 1 ascends vert., other paces truck, streaks.  Many CB repts.",N/A,7 min.
30.2752011,98.8719843,Fredericksburg,TX,12/12/96,Lights appeared above Laredo,Light,10 minutes
40.6639916,74.2107006,Elizabeth,NJ,12/12/96,"There are many sighting i have seen in my lifetime, there are even some that i have heard from my neibors out of the united states.",Changing,varies
34.09751,117.6483876,Upland,CA,12/12/96,Early morning driving to work a beautiful bright green colored sphere moving very fast crossed my path about one quarter mile in front ,Fireball,5 seconds
33.5206608,86.80248999999999,Birmingham,AL,12/11/96,"Pastor repts. seeing a &quot;bright ball of fire w/ speed of a falling star&quot; streak W to E. Slows, stops, turns 180 deg., shoots to NW.",N/A,105 sec.
30.3571438,87.1638574,Gulf+Breeze,FL,12/11/96,"Large red firy orange balls in a figure approaching   a triangle in shape40 years old , some graduate school,",Fireball,one hour
30.42130899999999,87.2169149,Pensacola,FL,12/10/96,"3x adult males driving S on Hwy. 98 witness large, bright yellow obj. hovering.  Obj. begins to expell other objs.! Complex sighting.",N/A,15 min.
34.2163937,119.0376023,Camarillo,CA,12/10/96,"I saw a bright, white light moving very fast. It was about, maybe 2 or 3 miles away from me. I saw it outside of my window, and I saw a",light,3 min.
34.6442954,118.2099563,Quartz+Hill/Lancaster,CA,12/10/96,"Wife,Husband see 'Orange-Gold light'traveling N toS directly over house moving slow NO SOUND. Round in shape.",Circle,3-4min
30.3571438,87.1638574,Gulf+Breeze,FL,12/10/96,Three super bright craft emitting triangular light array.,Sphere,15 minutes
41.4141172,73.3035651,Newtown,CT,12/10/96,I was walking in my basement and I looked outside. About 300 yards away hovering right over the trees in my back yard was a strange sha,Teardrop,5 minutes
35.1495343,90.0489801,Memphis,TN,12/10/96,around shape object in memphis.please this is no lie.....,Oval,5 minutes
44.7443293,92.8513706,Hastings,MN,12/9/96,"On the night of December 8th, 1996 at 11.15 pm (central) a triangular shaped object appeared in the sky and hovered in the air for a du",Triangle,Approx.15
36.3299233,114.9231755,Highway+15,NV,12/9/96,"2 men, other cars, witness a reddish-green, very bright patch of light in a.m. sky.  &quot;Looked like liquid.&quot;  Gigantic; moved across hwy.",N/A,60 sec.
38.8533773,91.3059895,Jonesburg,MO,12/8/96,"My wife and I were driving up Hwy. I-70 on our way back from St.Louis. Half way home, (around Warrenton) we spotted a strange white lig",Light,10 minutes
32.7554883,97.3307658,Fort+Worth,TX,12/6/96,Huge white mettallic object seen at jet airliner cruising altitude hovers vertically out of sight at warp speed.,Cigar,1min.20secs.
47.6062095,122.3320708,Seattle,WA,12/5/96,Man looking W over Pug. Sound from high-rise apt. sees large &quot;flattened oval of red/orange light&quot; arch across sky in perfect arc.,N/A,30 sec.
28.5552719,82.3878709,Brooksville,FL,12/5/96,Man standing outdoors waiting to see Space Shuttle sees 2 white lights at high alt. flying at very high speed overhead.  Unusual sight.,N/A,N/A
38.9489593,83.40574579999999,Peebles,OH,12/5/96,My hunting buddies and I witnessed this while camping in a sparsely populated area of Ohio.,Light,1 hour
43.653226,79.3831843,Toronto+(Canada),ON,12/5/96,"It was a fast flying object, which had about three extremely strong lights.  It was flying very high, and I noticed no noise.  It appea",N/A,1-1.5 min
47.4956579,121.7867775,North+Bend,WA,12/3/96,"Woman sees 3x very rapid pulses of light that fill the house and surrounding area. Gold, then blue, then distinctly green. No thunder.",N/A,5 sec.
38.7169918,87.86142020000001,Sumner,IL,12/2/96,"Mother, 2 daughters, rept. 2x large white lights in sky, surrounded by multiple white and blue, smaller lights.",N/A,15 min.
34.3769418,117.6915242,Wrightwood+Mtn.,CA,12/1/96,"Young man sees bright red, round light in dist. Obj. descends, fades.  Suddenly ascends, grows bright, moves off. No smoke or sound.",Light,N/A
39.0997265,94.5785667,Kansas+City,MO,12/1/96,"Two adults witness a big ball of light streak FAST across downtown K.C., fly SSW.  White front, bluish middle, red aft.  Trail left.",N/A,15 sec.
38.9517053,92.3340724,Columbia,MO,12/1/96,"Little ship circling Big ship. Over eastern,Columbia MO.Dember first I was traveling eastbound on Clark LN. When I noticed a bright",Light,10 min.
47.5666668,122.3867537,Seattle+(West),WA,12/1/96,My dad and I saw a UFO at night when we where looking at the stars.,Triangle,1-2 minutes
47.6768927,122.2059833,Kirkland,WA,11/30/96,"Mother, son, grandmother witness peculiar lights in S sky.  White, blue, then red.  Moves across sky, slows, stops, then STREAKS off.",N/A,10 min.
47.4473204,122.4598502,Vashon+Island,WA,11/30/96,"2x young boys see 2x streaks of white light, &quot;as wide as my thumb at arm's length,&quot; STREAK across 160 deg. of sky in 1 sec.",N/A,1 sec.
38.5347193,105.9989022,Salida,CO,11/30/96,"Aerospace engin. sees very bright, metallic-silver obj. streak across sky from NE to SW.  Horiz. to hor., 2 sec.. Flames released.",N/A,2 sec.
35.2219971,101.8312969,Amarillo+(east+of),TX,11/30/96,"Flash of light seen on 11/30/15, east of Amarillo.",Fireball,N/A
34.8697395,111.7609896,Sedona,AZ,11/30/96,Three round bright lights in triangle formation near Northern Slopes Foothills North.,Light,10-15 minutes
32.5251516,93.7501789,Shreveport,LA,11/30/96,IT WAS DARK I WAS DRIVING AND IT LOOKED LIKE A PLANE WITH A SMALLER OBJECT FLYING RIGHT UP TO IT AND ROTATING AROUND IT.,Unknown,30 SECONDS
26.2470165,98.4814092,La+Joya,TX,11/30/96,South Texas migrant worker sees &quot;flying disk&quot; while deer hunting.,Disk,few minutes
46.33124160000001,120.0911574,Outlook,WA,11/30/96,1996 Nov. or Dec.  coming in from a bad ice storm and snow.  The Valley lit into day three times for about three seconds each time.. I ,Light,3x 3-sec.intervals
34.0522342,118.2436849,Los+Angeles,CA,11/29/96,"3x youth playing baseball see &quot;polygon, or square shaped&quot; object in night sky.  Strobed blue, changed color. (No written report.)",N/A,25 sec.
34.8697395,111.7609896,Sedona,AZ,11/29/96,Orange Blazing Light over Rim of Mountain Northeast of Long Canyon.,Light,5 minutes
38.73035489999999,82.8554477,Wheelersburg,OH,11/28/96,A pair of stars begin to circle each other....shoot off...then return to their original positions....,Light,25 seconds
47.6101497,122.2015159,Bellevue,WA,11/28/96,"A young man repts. seeing a &quot;star&quot; in the N sky move horizontally, and then suddenly drop vertically very fast.  Very prominent.",N/A,3 sec.
47.6062095,122.3320708,Seattle,WA,11/27/96,"Woman reports witnessing a distinctly green flash of light, followed by a second identical flash.  Very strange in appearance.",N/A,5 sec.
35.3414744,89.8973084,Millington,TN,11/27/96,seethrought cheveron shape that made no noise,Chevron,2 min
35.0537094,94.6235579,Poteau,OK,11/26/96,A Very Large Triangle Shaped vessel with amber light all around and the shell looked kinda burnt.,Triangle,N/A
41.003698,76.4549457,Bloomsburg,PA,11/26/96,Black balloon shaped object on thanksgiving day 1996 in Central PA,Teardrop,2 minutes
29.2108147,81.0228331,Daytona+Beach,FL,11/26/96,"miles to the east we saw 5 discs in a semi arc. they were the size of a dinner plate. color that of a lighter flame, yellow. the clouds",Disk,1minute
36.6002378,121.8946761,Monterey,CA,11/25/96,"Man returns to site of previous sighting 26OC96.  Sees 3x cyl.-shaped objs.in triangular formation, streak overhead; then 8x more.",N/A,4 min.
43.3666254,95.1344115,Arnolds+Park,IA,11/25/96,Triangular Shaped Object Hovering Over Frozen Lower Gar Lake No More Than 1500ft (Aprox 1/4 Mile Away) From Bridge I Was Standing On.  ,Triangle,30 seconds
46.8083268,100.7837392,Bismarck,ND,11/24/96,"Nat. Weather Serv. meteorologist repts. peculiar, round,  orange obj. in S sky.  &quot;Like orange of space shuttle exhaust.&quot; Not star.",N/A,60 sec.
46.8083268,100.7837392,Bismarck,ND,11/24/96,"Nat. Weather Serv. empl. sees a small, circular, distinctly flame-orange obj. in the S sky.  Brighter &amp; larger than brightest star.",Light,60 sec.
32.9628232,117.0358646,Poway,CA,11/24/96,"Couple sees &quot;a bunch of bright lights, flashing&quot; in the night sky.  &quot;It looks like a walnut.&quot; Cluster reptd. to move across the sky.",N/A,30 min.
25.7616798,80.1917902,Miami,FL,11/24/96,A light the size of an average star was spotted traveling at grater spped than commmercial aircraft at a high altitude.,Light,2 min
41.8901248,80.6758667,Kingsville,OH,11/23/96,Woman &amp; daughter witness 3 lights circling in sky above car; follow car for several miles.  Suddenly wink out.  (Advertising lights??),N/A,18 min.
37.9577016,121.2907796,Stockton,CA,11/23/96,"Woman, daughter,3x other cars witness LARGE, spherical obj. rotating in night sky. 100x BRIGHT lights. Changed rotation dir.",N/A,30 min.
37.8840922,121.2710555,French+Camp,CA,11/23/96,"Fem. empl. of sheriff's off. on way to work sees large, round obj. w/ bright lights rotating, moving in W sky. Very prominant, strange.",N/A,5 min.
38.2717389,84.686335,Stamping+Ground,KY,11/23/96,Giant black triangle hovers over me and my car while parked on Union Ridge in northern Franklin Co. Kentucky...,Triangle,8 minutes
27.044224,82.2359254,North+Port,FL,11/20/96,"Man &amp; wife witness large white light in distance.  Grows larger, descends, passes directly overhead.  Big disc.  Dog, cats VERY upset.",N/A,8 min.
41.4047742,81.7229086,Parma+(??),OH,11/20/96,I WENT OUTSIDE TO TAKE OUT THE GARBAGE DURING THE INDIANDS PLAYOFF GAME I WENT TO THE BACK YARD LOOKED UP AT THE TOWER AND SAW A LIGHT.,Circle,10MIN.
28.9444142,95.28882569999999,Surfside+(on+the+beach),TX,11/20/96,"It appeared above me app. 200 ft. with 3 lights; {leftlight, red} {right light,green} {middle light, bright white.} The middle light bl",Diamond,seemedlike 3hours
34.2257255,77.9447102,Wilmington,NC,11/20/96,COMING HOME ONE NITE WE SAW A DIAMOND SHAPE OBJECT APPEAR FROM NOWHERE AND IT HOVERED FOR A FEW MINUTES AND THEN DISAPPEARED.,Diamond,4 MINUTES
42.7130889,85.4619599,Middleville,MI,11/19/96,Woman sees bright &quot;fluorescent glowing green&quot; obj. streak across the sky in dir. of airport.  Size: 1&quot; at arm's length; round. BRIGHT.,N/A,3 sec.
34.1397292,118.0353449,Arcadia,CA,11/17/96,"2x young men see large triangular obj. w/ lights on corners. Dips, rises, several times, then STREAKS to W.  Had &quot;shimmering effect.&quot;",N/A,3 sec.
36.1699412,115.1398296,Las+Vegas,NV,11/17/96,"Saw a stationary &quot;star&quot; all of a sudden zip to the west, across the southwest sky.",Light,1 to 2 sec.
42.1372967,76.9369067,Big+Flats,NY,11/17/96,Woman relays that man &amp; son had witnessed a dramatic reddish-yellow light in the night sky.,N/A,N/A
41.80729609999999,77.077468,Mansfield,PA,11/16/96,"Man saw orange fireball pass across the sky at very high speed from E to W.  Approx. 1/4-1/2 dia. of moon.  Very fast, bright.",Round,5 sec.
42.3806287,76.8732921,Watkins+Glen,NY,11/16/96,Six teenagers on hill witness a BRIGHT ball of fire w/ a green/yellow trail streak across the sky.  Covered 110 degrees in 3 seconds.,N/A,3 sec.
39.6581424,78.92835699999999,Frostburg,MD,11/16/96,"Man sees a bright yellow, round ball of light w/ green tail stretching from hor. to hor. go slowly from NE to SE in W sky. Clear sky.",N/A,5 sec.
41.0262417,73.6281964,Greenwich,CT,11/16/96,N/A,N/A,N/A
41.0262417,73.6281964,Greenwich,CT,11/16/96,2x men see VERY bright yellow/orange ball of light STREAK across sky E to W parallel to horizon. Not a/c or meteor they thought.,N/A,7 sec.
40.3356483,75.9268747,Reading,PA,11/16/96,"Man sees VERY BRIGHT orange/red, distinctly round fireball STREAK across sky parallel to horiz. Long tail! Not meteor, he thought.",N/A,5 sec.
40.7127837,74.0059413,New+York+City,NY,11/16/96,"News media rept. Pakistani &amp; TWA airliners departing JFKennedy airport witness very bizarre, fast obj. in their proximity.",N/A,N/A
30.3321838,81.65565099999999,Jacksonville,FL,11/16/96,Jacksonville FAA relays rept. from 2 airliners:  both at 41' k. see two objs. in large cloud of blue light streak by them. NOT meteors.,N/A,N/A
39.6581424,78.92835699999999,Frostburg,MD,11/16/96,Man (anonymous) repts. that his brother had seen a strange light streak from N to S.  &quot;Scared the daylights out of him.&quot;  (No facts.),N/A,N/A
42.3367406,76.78856549999999,Odessa,NY,11/16/96,Husband &amp; wife witness a large ball of light w/ a long green trail streak across sky.  Very dramatic sighting.,N/A,30 sec.
47.7192927,122.2951857,Lake+City,WA,11/16/96,"Young man sees disc-shaped obj. w/ &quot;double dome--top and bottom, w/ red light around middle&quot; do wild gyrations in N sky.  Streaked.",N/A,45 sec.
40.0323338,74.9573908,Riverside,NJ,11/16/96,"Woman &amp; daughter see V-shaped obj. w/ red/blue/green lights streak across sky, stop dead, hover.  Many neighbors witness object.",N/A,30 min.
40.7274849,74.0051273,Bandy,NY,11/16/96,"Young man sees very prominant white light streak from E to W in southern sky.  BRIGHT white light, and VERY fast.  Short trail.",N/A,4 sec.
41.656464,76.8532927,Canton,PA,11/16/96,The blue lights zigzagged very rapidly across the sky and would come to a dead stop and then do it again.,Light,1 minute
38.99066570000001,77.026088,Silver+Spring,MD,11/16/96,Triangular Craft Flies Through Boyfirend's Neighborhood.,Triangle,45 seconds
36.1699412,115.1398296,Las+Vegas,NV,11/16/96,number of strange lights seen in NV test site  Area 51 months before phoenix sighting,Light,1 hour
41.67951860000001,77.0638567,Blossburg,PA,11/15/96,"Sen.mil.(ret.) sees large, rnd, bright &quot;ball of orange light&quot; ahead,in formation w/ comm. a/c pass overhead! NOT meteor.Exclnt rept.!",N/A,30 sec.
35.1609667,106.5592588,Albuquerque+(Manzano+Mountains),NM,11/15/96,A bright purple sphere Hoovers then uses some type of warp drive to dissappear.,Sphere,30 minutes
40.742551,84.1052256,Lima,OH,11/15/96,"2 adult women about 1 mile apart saw a brightlight 1/2 moon in diameter hover between and above them for about 10 min., then vanish",Light,10 minutes
40.8257625,96.6851982,Lincoln,NE,11/15/96,Orange narrow diamond shaped ufo seen rotating in tree top next to my apartment.,Diamond,5 min
31.0835102,97.6597376,Harker+Heights,TX,11/15/96,This dot of light was moving quite fast and then it stopped and took off 90 degrees from the direction it was traveling,Light,2 minutes
44.9428975,123.0350963,Salem,OR,11/14/96,"4 individuals witness distinctly red light above clouds.  Changes to white, back to red, then disappears.  Video footage taken.",N/A,3 min.
27.059498,80.1364323,Hobe+Sound,FL,11/14/96,Green fireball moving at high rate of speed.,Fireball,5 seconds
46.3140884,114.1128734,Corvallis,MT,11/14/96,glowing orb like object displacing dense fog,Sphere,3 seconds
40.2997395,76.90348829999999,Harrisburg+(just+outside+of),PA,11/13/96,Flew around in sky then flew off in westerly direction.,Light,4 minutes
27.8397466,82.79121339999999,Seminole,FL,11/13/96,I out of my front door to let the dog out. I remember I stared at this bright star that was pulsating. Then I had a feeling that I was ,Triangle,5 min.
34.4263886,117.3008784,Hesperia,CA,11/13/96,"Huge Black Triangular Craft hovers over the 15 Freeway in High Desert,CA. 1996",Triangle,6 min.
44.7308461,116.0772125,Donnelly,ID,11/12/96,Black triangle in the mountains of Idaho,Triangle,5 minutes
41.3436554,86.3097278,Plymouth,IN,11/9/96,3 Silent Black Triangles flying in a One Sided Formation with Dim Lights in the shape of a V on the bottom,Triangle,2 minutes
42.9273406,123.2811748,Canyonville,OR,11/9/96,Disk-shaped craft spotted hovering in the sky,Disk,5 minutes
47.6062095,122.3320708,Seattle,WA,11/7/96,Dimly lit group of colored objects hovering over the Woodland Park Zoo emitting light beams similar to spotlights.I was walking my ,Sphere,7 sec.
40.305598,89.6028829,San+Jose,IL,11/6/96,"Coming home from voting in &quot;96&quot; my wife and I noticed 7-8 craft off to the west. Flying very erratically, almost looked like they were ",Formation,3-4 minutes
40.1672068,105.1019275,Longmont,CO,11/3/96,"Mother &amp; daughter see immense blue flash in sky.  2 min. later, saw shaft of blue light w/oblong cloud on top, illuminated on inside.",N/A,2 min.
41.6000752,76.44188679999999,New+Albany,PA,11/2/96,"2x turkey hunters notice a very bright, round light in sky.  Obj. suddenly breaks into 8-10 individual lights.  Center translucent.",N/A,12 min.
47.3223221,122.3126222,Federal+Way,WA,11/1/96,Saw an extremely fast white dot (similar to a slow moving satalite but very fast) Zoom across the Puget Sound sky.North to South,Circle,1-2 sec
39.3331197,82.9824019,Chillicothe,OH,11/1/96,round white lights in a slanted row.,Other,10-20 sec.
42.8340582,71.0005509,Merrimac,MA,11/1/96,"Massachsuetts - 1996 - Very Clear, Unmistakable, Evening Sighting",Triangle,40 seconds
35.083975,92.2079277,Vilonia,AR,11/1/96,Cylinder-shaped object decended and began circling a nearby cell-phone tower.  It shortly vanished.,Cylinder,5 min.
29.79466409999999,98.7319703,Boerne,TX,10/31/96,"Sec. officer at hospital  sees very bright blue light.  Silhouetted by cloud, appears as &quot;coffee table w/ shirt box on top.&quot; Erratic.",N/A,30 sec.
37.68717609999999,97.33005299999999,Wichita,KS,10/31/96,Another report of the 3 flashing lights in the sky Halloween '96,Light,~5 minutes
43.1200272,85.5600316,Rockford,MI,10/31/96,It was on a Halloween night and I saw a flash in the sky and zoomed off in the air with a bunch of colors following it.,Flash,5 seconds
35.8456213,86.39027,Murfreesboro,TN,10/31/96,10/31/1996 shape of a circle white light like the moon  can move at very fast speed,Circle,halloween
40.486427,86.13360329999999,Kokomo,IN,10/30/96,"Young couple in car see 3x lights approaching slowly in air. White on  sides, flashing red in middle.  High-pitch hum. Big; solid.",N/A,2302
40.4333996,80.7717478,Richmond,OH,10/30/96,orange triangle metallic looking object sighted from windowI was sitting on couch and saw a plane? coming in the distance. No surpr,Triangle,a few minutes
37.6747537,97.2378076,Rose+Hill+/+Wichita,KS,10/30/96,"I saw 3 bright, parallel red lightst 30 degrees above the horizon, lighting up one at a time from right to left. They covered a large p",Light,20 Minutes
32.9810059,80.03258670000001,Goose+Creek,SC,10/30/96,blue lighted cigar slanted sighted over subdivison.  was stationary then turned angle and shot up disappearing fast.  2 nights before s,cigar,1 minute
40.44062479999999,79.9958864,Pittsburgh,PA,10/30/96,Saw a disc shaped object from a distance to close.,Disk,3-4 minutes
42.9956397,71.4547891,Manchester,NH,10/28/96,not moving at all,Diamond,2min
33.6189101,117.9289469,Newport+Beach,CA,10/26/96,"Object defies physics in Newport Beach, CA.",Changing,2.5 minutes
39.0992752,76.8483061,Laurel,MD,10/25/96,"Man, entering Hwy. I-95, sees 2 round objs. hovering motionless in clear sky.  Color of pencil lead w/ copper.  Objs. STREAK in 1 sec.",N/A,25 sec.
30.2265949,93.2173758,Lake+Charles,LA,10/25/96,WITNESSED THREE STRANGE OBJECTS PUTTING OUT A VERY WHITE LIGHT THEY WERE ABOUT 45-60 FEET OFF THE GROUND WHEN FIRST SPOTTED ALSO PUT OU,Changing,10 MINUTES
39.9242266,83.8088171,Springfield,OH,10/24/96,"It Looked Like A star and then I seen three lights that formed a triangle and i told my brother, and cousion and they seen it to ,we st",Triangle,1.min 30sec.
31.8456816,102.3676431,Odessa,TX,10/20/96,"Driving down busy street at night, quarter of mile or so, thought we saw several helicopters in sky.  Drove right up to it and under it",Diamond,5 minutes
37.7096765,97.3084571,Wichita/Rose+Hill,KS,10/20/96,While driving observed 3 parallel bright red lights lighting in turn from left to right. These covered sizable area of night sky. Small,Light,15 Minutes
40.2822598,86.04109799999999,Tipton,IN,10/20/96,Sphere shaped  craft hovering above field,Sphere,15 minutes
35.1495343,90.0489801,Memphis,TN,10/18/96,I was spending the night at a friends house when we went outside to check on his dog and my we saw something in the sky.They were a,Unknown,5 MINUTES
37.2709704,79.9414266,Roanoke,VA,10/15/96,I saw a triangular craft with only red light from front to back on it. Craft stopped over my back yard and shone light down.,Triangle,1 hour
37.2709704,79.9414266,Roanoke,VA,10/15/96,Here's my case I rerported to Nuforc.org. It's horribly written so I'll rewrite it here to tell more of the details. It was not hunting,N/A,N/A
45.2773303,123.7045586,Blaine,OR,10/15/96,2adults - collaged MA degreed - viewed sphere silver/white 90% upper red/orange/blue 10% lower  approx. 3mi. away size:approx 400meters,Sphere,unknown
35.265073,84.5532652,Delano,TN,10/15/96,If you don't believe in ufo's you better keep your mind open and be prepared for the unexpected.,Other,30 seconds
43.0389025,87.9064736,Milwaukee,WI,10/15/96,A large triangular ship with a large white light in the center and 3 smaller red lights that made a triangle outside the white light.,Triangle,Boy Scouts
30.267153,97.7430608,Austin,TX,10/15/96,It was floating right above the tree tops over the houses about 75 feet from the tops os the houses.,Triangle,5 minutes
38.5332335,123.0852853,Cazadero,CA,10/15/96,You won't believe what happened to ME!!!!,Unknown,2 minutes
37.5629917,122.3255254,San+Mateo,CA,10/15/96,Silent  Close Range White Light seen on Highway 280 south of Highway 92. Witnessed by 3.,Light,10 Minutes
29.6516344,82.32482619999999,Gainesville,FL,10/14/96,"My sister and I  both had a dream that a ufo was coming to Gainesville. They showed us around the ship,and the greys told us that they ",Circle,30 min
34.1517492,118.5214282,Encino,CA,10/13/96,"very large V shaped craft flys from horizon to horizon in 3 seconds, very low and silent (Los Angeles)",Triangle,3 seconds
31.8456816,102.3676431,Odessa,TX,10/13/96,We saw a huge diamond shaped object hovering over us.,Diamond,10 minutes
40.7658998,73.9187118,Astoria+(Outside+of),OR,10/13/96,large metallic object crashed in woods in astoria oregon.,Circle,30 seconds
29.6516344,82.32482619999999,Gainesville,FL,10/13/96,ALIEN CONTACT THROUGH DREAMS,Circle,HOUR
39.5296329,119.8138027,Reno,NV,10/13/96,"At 3:19 am, bright light seen outside window and then one small tugboat triangular shaped aircraft seen over the house and then both oc",Triangle,40 minutes
36.6337272,81.7837303,Damascus,VA,10/11/96,"1996 SIGHTING IN DAMASCUS, VA. WHILE CAMPING IN THE CHEROKEE NATIONAL FOREST.",Light,60 SEC.
46.8083268,100.7837392,Bismarck,ND,10/11/96,5 white lights in formation,Formation,6
39.7199038,81.0754657,Monroe+County,OH,10/10/96,Looked like it went through the hillside,Cylinder,1 minute
32.7764749,79.93105120000001,Charleston,SC,10/10/96,"Flashing object above Charleston, SC",Light,5 min
39.0725121,93.7171621,Higginsville,MO,10/10/96,"illuminated triangular craft, flying at high speed from South to North",Triangle,3sec
32.2686981,107.7586404,Deming+(near),NM,10/9/96,"Silent, jet-shaped, beige hovering object viewed. Magnetic interference with watches.",Other,30 seconds
40.64759970000001,73.1459474,Fire+Island+(Long+Island),NY,10/6/96,Fire Island up close encounter with a UFO.,Other,45 MINUTES
40.7830603,73.9712488,New+York+City+(Manhattan),NY,10/6/96,"Boomerang-shape, &quot;dividing&quot;? objects.",Triangle,15-20 minutes
47.7423218,121.9856781,Duvall,WA,10/6/96,Secret Base in the Cascades  ((NUFORC Note:  We doubt it.  PD)),Triangle,N/A
37.7749295,122.4194155,San+Francisco,CA,10/6/96,Boomerang Shaped Objects w/ dark &amp; light color scheme,Triangle,30 min
39.114053,94.6274636,Kansas+City,KS,10/6/96,Very Bright blue strobbing/pulsing light in center of some type of craft that flew over house illuminating ground...,Unknown,35 seconds
41.3206523,73.0889973,Derby,CT,10/3/96,"Two large lights were seen high in the sky. The objects swung around, changing position with one another, then the top object vanished.",Light,30 - 40 minutes
37.9963881,105.6997332,Crestone,CO,10/3/96,"Four balls of light travelling in sky, also see possible related New Mexico report for 10/3/96.",Light,30 seconds
35.6869752,105.937799,Santa+Fe,NM,10/3/96,"Thought it was a plane coming FROM the SE (moving NNW), it moved at a very regular plane-like speed.  Felt it might have been a militar",Rectangle,:05
30.1658207,95.46126249999999,The+Woodlands,TX,10/1/96,2 orange fireballs moving across sky ~ crazy acrobatics,Fireball,2-3 minutes
32.8339546,109.70758,Safford,AZ,10/1/96,Antigravity flying sphere,Sphere,30 sec.
37.3229978,122.0321823,Cupertino,CA,10/1/96,"Metalic ball floating motionless in high winds over San Jose, CA.",Sphere,10 mins
40.7830603,73.9712488,New+York+City+(Manhattan),NY,10/1/96,"Possible UFO Sighting, Manhattan, New York 1996",Oval,5 mintues
39.2275658,83.27046630000001,Bainbridge,OH,10/1/96,Low-flying triangular object,Triangle,3 minutes
38.6097407,122.254045,Lake+Berryessa,CA,10/1/96,"Deep Blue Sphere seen over Lake Berryessa, California",Sphere,15 seconds
29.7350105,95.4911305,West+Houston+(Greenridge+@+Westiemer+Rd.;+near+Galleria),TX,10/1/96,Three bright orange-white lights moving in a V formation from northeast to Southwest The center light would change position front to re,Formation,30 SECONDS
44.7630567,85.62063169999999,Traverse+City,MI,9/30/96,U.F.O. sighting and lost time.,Rectangle,22:00to23:30
50.7965432,106.5068436,Central+Butte+(Canada),SK,9/30/96,"Looked like a birthday cake with very bright white flashing lights, stationary in sky above until it quickly moved on.",Circle,2 minutes
46.146779,122.9084445,Kelso,WA,9/29/96,2 workers on pulp digester bldg. see 25-30 objs. streak overhead to N.  Maneuvered relative to one another.  Dramatic sighting.,N/A,N/A
48.4284207,123.3656444,Victoria+(Canada),BC,9/29/96,A very bright light that was hovering and then bolted away.&#9;&#9;,Light,20:00 min.
44.152593,78.798407,Nestleton+(Canada),ON,9/27/96,Farmer sees cigar-shaped obj. w/ flashing red light hovering 150 yds away.  Streaks toward him. Wife sees it.  Obj.  streaks off FAST.,Cigar,2 min.
39.0511558,84.5350292,Ft.+Wright,KY,9/27/96,String of lights snaked around the moon during a lunar eclipse.,Circle,10 seconds
32.7556768,98.90228979999999,Breckenridge,TX,9/26/96,constantly changing nebulous-shaped object flying disturbingly fast at the moment of a full lunar eclipse,Changing,1-2 seconds
38.4095529,80.55786619999999,Cowen,WV,9/26/96,I was lieing in my bed when.........,Disk,Unknown
43.8561002,79.3370188,Markham+(Canada),ON,9/25/96,My daughter found an Iron Disk that seemed to hit a fence and burn the fence at a baseball diamond.. the Disk is burnt on all edges.. f,Other,ongoing
40.8358975,78.8764205,Smithport,PA,9/24/96,"http://ufoinfo.com/roundup/v01/rnd01_31.shtml BLUE ALIEN SIGHTED IN PENNSYLVANIA CORNFIELD On Tuesday, September 24, 1996, two children",N/A,N/A
30.42130899999999,87.2169149,Pensacola,FL,9/22/96,silent and fast illuminated craft,Cigar,10 seconds
39.7392358,104.990251,Denver,CO,9/22/96,"I witnessed 2 unusual and unidentifiable light sources in the sky above Denver. It was an unseasonably warm September evening, no cloud",Light,3 MINUTES
39.2762238,122.1917266,Maxwell,CA,9/21/96,"Large, motionless, thimble-shaped object radiating bright light from big windows, 1000 ft. over I-5.",Other,10 minutes
35.9517674,95.65081400000001,Coweta,OK,9/20/96,I am providing approx. time and dates. I was out our home in the county line road between Coweta and Broken Arrow Oklahoma. I had stepp,Disk,5 hours
41.5053178,82.02820009999999,Avon+Lake,OH,9/19/96,"ufo spotted 9-19-96 on the shores of Lake Erie in Avon Lake, Ohio, United States of America",Changing,3 minutes
42.2808256,83.7430378,Ann+Arbor,MI,9/18/96,Falling white light made &quot;u&quot; turn and disappeared.,Fireball,5 sec.
42.7120196,73.20368979999999,Williamstown,MA,9/17/96,three points of light in the shape of triangle slowly moved across the sky.,Formation,5 minutes
38.9108408,94.3821724,Lee's+Summit,MO,9/17/96,triangle with 3 white lights on the bottom and 1 red light on top,Triangle,10 minutes
42.4603719,71.3489484,Concord,MA,9/16/96,Large craft seen hovering over trees along Route 2 in Massachusetts.,Oval,3 min?
39.7456531,105.5992025,Georgtown/Idaho+Springs+(between)+(Clear+Creek),CO,9/16/96,obseved a very reflective ufo over a mountian pass it moved across my field of vision was able to record with video camera. good footag,Disk,60 sec
58.8050174,122.697236,Fort+Nelson+(Canada),BC,9/15/96,"It was about 11:30 pm, A friend and I were on our way to attend a collage course in B.C.. We saw what looked like 3 round large balls o",Fireball,15 min.
58.8050174,122.697236,Fort+Nelson+(Canada),BC,9/15/96,The round lights looked very hot and  veried in color as they pulsated and hovered over the valley.,Fireball,1 min.
34.5439735,85.31051110000001,Trion,GA,9/15/96,The craft was between earth and a full moon.,Triangle,30 seconds
44.7483037,75.1325897,Madrid,NY,9/15/96,"slow moving row of 3 or 4 red window like lights following our road, above the telephone lines after dusk",Other,2 min
34.6278654,86.2744285,Woodville,AL,9/15/96,Object had 4 white lights shining their beams behind it. They swept around to the front and it took off north.,Triangle,3 Minutes
47.950355,124.3854867,Forks,WA,9/15/96,"In 1996 I was at my daughters in forks washington. about 9 p.m. i steped outside to smoke, i was looking at the stars, it's usualy clou",Unknown,15 minutes
47.7584877,118.519718,Creston,WA,9/15/96,Abduction Fall 1996,Unknown,Unknown
38.3184577,76.4541186,Solomans+Island,MD,9/15/96,Solid object floating about 20 feet above the tree tops,Light,10 minutes
53.5051735,112.0621385,Vegreville+(Canada),AB,9/15/96,HBCCUFO CANADIAN REPORT:  Golden cylinder was pacing our vehicle.,Cylinder,approx: 30 minutes
39.5625695,82.1873696,Ironton/Wayne+National+Forest+(Northwest+of),OH,9/15/96,Spherical orbs that appear to be luminous.,Sphere,2 minutes
32.7678287,117.0230839,La+Mesa,CA,9/15/96,Bright reddish star in La Mesa,Light,30 seconds
44.9428975,123.0350963,Salem,OR,9/15/96,While driving home on State street just East of Lancaster (we were traveling East) a bright lime/jade green &quot;comet&quot; appeared infront of,Teardrop,6sec
-34.846,-138.503,Port+Adelaide+(South+Australia),SA,9/14/96,"I was driving down the street, a main road, and looked up and saw a green light flash over my head and qwondered what the hell was that",Light,5 sec
39.4939726,74.45768420000002,Smithville,NJ,9/14/96,Large craft hovers over car. witnessed by 4 individuals in two seperate locations!,Disk,5 seconds
40.6421334,116.9342671,Battle+Mountain,NV,9/14/96,"Full moon or just after (that time) 8 to 8-30 pm. Two seperate occasions, the first a month earlier. Disc shaped, no lights, featureles",Disk,5 miutes
41.6005448,93.6091064,Des+Moines,IA,9/14/96,"my friend and i saw a blurry white shape, 'bobbing' far off in a blue sky. we got the binoculars and with those saw that it was a class",Disk,15 minutes
30.267153,97.7430608,Austin,TX,9/13/96,"Triangle shaped, low-flying, slow, silent Stealth fighter sized object with a red, revolving light on bottom.",Triangle,3-4 minutes
39.9625984,76.727745,York,PA,9/13/96,"We both saw something, the same thing, and we both felt really weird about it.",Flash,5 seconds
46.06548799999999,73.7340588,Rawdon+(Canada),PQ,9/12/96,green light ovale,Oval,25 min
46.2112458,119.1372338,Kennewick,WA,9/12/96,Pulsating white light that disappeared like a vapor.,Other,4 min. approx.
34.5362184,117.2927641,Victorville,CA,9/12/96,Saturn/top shaped round disk with black ring circumscribed in bottom and 3-4 companion blobs,Disk,3 hours
45.0502435,93.1566112,Arden+Hills,MN,9/11/96,"A bright white light was seen in the night sky. It quickly darted over to the north, stopped, and then took off back south and suddenly",Light,N/A
36.1881365,94.54049619999999,Siloam+Springs,AR,9/10/96,"three lights moving in a triangle formation, no sound, all three lights went out at the same moment",Triangle,5 minutes
37.7749295,122.4194155,San+Francisco,CA,9/9/96,I have over three million miles on AA alone and fly everyday.  As we flew from sanfran the normal turn is to the north over the city an,Oval,Seconds/1 hour
32.0835407,81.09983419999999,Savannah,GA,9/9/96,"Unable to sleep, looking out window, became aware of something coming over top of building, lit from beneath, almost luminescent. Slowl",Disk,30 sec.
39.9025504,84.6263431,West+Manchester,OH,9/7/96,"Triangular object with orange lights circled group of 4 teens ,hummed and buzzed before exiting town to S. 4 teens joined by 2 adults w",Triangle,20 min.
37.9577016,121.2907796,Stockton,CA,9/7/96,awakening to a being in the doorway of my room,Other,4 minutes
40.88537729999999,73.9523597,Englewood+Cliffs,NJ,9/6/96,"On August 6th of 1996, while driving North on Route 9-W from Fort Lee, NJ to Englewood Cliffs NJ, I observed (what appeared to be) a la",Chevron,10 minutes
40.6804279,122.3708419,Lake+Shasta,CA,9/6/96,Object speeds through night sky.,Light,1-2 min
42.5991895,114.4796977,Snake+River+(ID/OR+border),ID,9/5/96,bright spherical object above Snake River,Sphere,3 minutes
35.587084,80.46283849999999,Faith,NC,9/5/96,"Large black triangle, lights on the corners. Moving 3 or 4 mph right above the treetops. Faint humming noise. 500 Lights On Object0",Triangle,30 secs
38.8119527,94.5318982,Belton,MO,9/4/96,"It was large, fast,  transparent, only two hundred yards away, and made absolutley no sound at any time.",Triangle,20 Minutes
41.0381525,74.2940378,Wanaque,NJ,9/2/96,8 vertical strobing white lights above Wanaque reservoir NJ,Formation,90 seconds
36.9759345,82.5757108,Wise,VA,9/1/96,Mysterious aircraft sighted in the hills of Southwest Virginia,Oval,10 minutes
45.4388418,88.6602453,Wabeno,WI,9/1/96,"orange ball seen following a secret aircrat, at 450 mphin the northwoods of wisconsin.",Fireball,15 seconds
40.5852602,105.084423,Fort+Collins,CO,9/1/96,"Sighting of crescent moon shaped object at about cloud high, traveling from NNW to SSE in direction of Denver CO, at 9:30 PM. No sound.",Disk,1 min.
40.5852602,105.084423,Fort+Collins,CO,9/1/96,"9/1/96 SIGHTINGAround 9:30 pm, Sunday, September 1st, 1996, my wife and I were in our backyard watching the sky.  This had become our c",Disk,45 sec
41.9203337,79.6403287,Wattsburgh+(Corry),PA,9/1/96,Spotlights from the sky.,Other,30 Mimutes
40.0996216,89.5848374,New+Holland+(rural),IL,9/1/96,Witnessed an object with 3 lights forming an equilateral triangle on its bottom plane that hovered and made no noise.,Unknown,10 minutes
42.4603719,71.3489484,Concord,MA,9/1/96,Large saucer spotted hovering above trees.,Disk,?
41.5810168,83.54507280000001,Ohio-Michigan+border,OH,9/1/96,A UFO explodes in the sky,Light,1 minute
33.2098407,87.56917349999999,Tuscaloosa,AL,9/1/96,"Saucer skirts clouds, disappears",Disk,N/A
26.271192,80.2706044,Coral+Springs,FL,9/1/96,bright round light flew over our car two times,Light,15 seconds
37.2295733,80.4139393,Blacksburg,VA,8/30/96,"Two witnesses, no more than 40 feet from bright white sphere 3 1/2 - 4 feet in diameter blocking our way on rd.",Sphere,1 1/2 Minutes
47.76095,122.2055883,Bothell,WA,8/28/96,Looked out window of my house on a clear night at dusk and saw what looked liked a LARGE Triangular or boomerang type thing appearing l,Triangle,45 minutes
40.5852602,105.084423,Fort+Collins+(northwest+of),CO,8/24/96,"Lights whirling in and around trees, Whooshing sound as the craft flew overhead. The approach of 2 1/2' to 3' tall beings.At about ",Light,9 Hours
25.956064,80.14241,Unknown,FL,8/24/96,Egg Shaped UFO seen from air plane over Florida,Egg,10 minutes
39.4388993,98.6947949,Osborne,KS,8/24/96,They came at night and stabbed my leg and left.,N/A,03:30
43.3941952,79.9804642,Carlisle+(Canada),ON,8/23/96,Alien abduction and several visitations,Unknown,several months
38.3456023,91.5015487,Owensville,MO,8/20/96,Woman w/ 2 sons sees very bright lights in night sky. Obj. illuminates her house &amp; neighbor's house! Obj. streaks NNW;  green trail.,N/A,N/A
33.4483771,112.0740373,Phoenix,AZ,8/20/96,Star like UFO seen by hospital security flying around Boeing 737 in Phoenix Arizona.,Light,1 minute
39.9025504,84.6263431,West+Manchester,OH,8/20/96,"Teen girl  saw circular UFO with orange,green,reddish-orange .A series of rectangular windows were around the middle body. One window i",Disk,5-10 min.
43.7274793,97.5931238,Spencer,SD,8/19/96,Alien crafts-Eastern South Dakota- late summer early fall 1996,Unknown,22 minutes
41.7600902,70.0827905,Brewster,MA,8/19/96,It was daylight on approxiamately 8/19/96  I just had graduated high school in June and i was living at home with my parents i was not ,Disk,45minutes
39.7767597,86.1541768,Ft.+Wayne+(50+miles+NW+of),IN,8/18/96,"Stationary Sphere Viewed Off Tip of Crescent Moon Not Far From Ft. Wayne, Indiana",Sphere,20 minutes
45.1732394,93.30300629999999,Coon+Rapids,MN,8/18/96,"A V shaped craft with amber colored lights that was a big as a football field heading west towards Anoka, Minnesota on August 18, 1996.",Other,1 minute
34.4208305,119.6981901,Santa+Barbara,CA,8/16/96,My wife and I were walking towards our car through the back parking lot of Andreas Restaurant after dinner. I was looking towards the d,Triangle,3 seconds
39.3454673,84.5603187,Fairfield,OH,8/16/96,Triangle shape observed  on bright sunny day,Triangle,1 minute
35.2578498,96.9366888,Tecumseh,OK,8/16/96,a flying disc circled around me and gave me somthing.,N/A,N/A
44.6994873,73.4529124,Plattsburg,NY,8/15/96,High altitude high speed triangle with red light on each tip performing complex geometric maneuvers.,Triangle,20-30 minutes
37.78402080000001,79.4428157,Lexington,VA,8/15/96,What I saw was a light in the sky that moved silently and very fast down the side of a mountain.,Light,5 seconds
41.93054679999999,70.03097530000001,Wellfleet,MA,8/15/96,"3 triangular objects with green lights, making no sound, heading east over Welfleet drive-in.",Triangle,30 minutes
38.4250001,105.0227624,Penrose,CO,8/15/96,UFO shot down over military installation,Other,15 min. approx
40.8991963,73.3678388,Centerport+(Long+Island),NY,8/15/96,A light brown transparant disc about the size of the full moon moving across the sky in a NNW direction.,Cross,10 Sec
49.8879519,119.4960106,Kelowna+(Canada),BC,8/15/96,"Large, bright  two egg-shapped orbs attached together forming oval/circular shape.",Egg,2 minutes
37.7781702,81.1881557,Beckley,WV,8/15/96,"Silent, low flying helicopter with light scanning below",Other,3-4 minutes
38.2248367,80.5331411,Richwood,WV,8/15/96,Monongahelia National Forest/Marlingto Road UFO Formation sighting.,Formation,1-2 seconds
40.6681213,79.0116985,Clymer,PA,8/15/96,In  August in 1996 I attended a picnic at a friend's farm in Clymer PA and observed a bullet shaped craft.,Other,20 seconds
60.7922222,161.7558333,Bethel,AK,8/15/96,I happened to look out my back window and was shocked to see a huge triangular shaped craft at a very high altitude.,Triangle,2 mins
41.0262417,73.6281964,Greenwich,CT,8/15/96,"A perfect square object, enormous in size, slow in movement with no visible signs of propulsion.",Rectangle,10 minutes
42.4073334,124.421774,Gold+Beach,OR,8/15/96,Me and my family were on our way to the county fair and we saw the UFO,Other,2 - 5 min.
28.4008319,97.7483312,Beeville,TX,8/15/96,"I was abducted and I can remember the happenings, I just cant remember what they want.",Light,two to three hours
42.9633599,85.6680863,Grand+Rapids,MI,8/15/96,Two small objects that appeared to be non-teresteral,Light,20-30 min
42.9633599,85.6680863,Grand+Rapids,MI,8/15/96,We saw two red dots of apparent unearthly origin.,Light,20 minutes
41.7691235,72.9648388,Burlington,CT,8/15/96,it was a cool evening when i walked out on to the balcony.  i always loved looking up at the sky at night.  on this particular night i,Light,10 min. plus
29.7030024,98.1244531,New+Braunfels,TX,8/15/96,"Disk-shaped blue, white, red lights",Disk,3 minutes
33.5778631,101.8551665,Lubbock,TX,8/15/96,Several strange lights in Texas,Circle,1 hour
38.3456023,91.5015487,Owensville,MO,8/14/96,"In morning 6:45 before work, I just happened to look up. traveling from the NE to SW, a cylinder approx. 20-30 ft. in diam..",Cylinder,1 minute
29.5482932,98.4752771,Texas+(in+the+air+over),TX,8/13/96,Unknown Sphere Seen Over Texas,Sphere,7 minutes
47.6062095,122.3320708,Seattle,WA,8/12/96,"Young man sees 3x faint yellow light, in triangular formation, pass overhead at very high speed, he thought.  Opaque in middle. Silent.",N/A,30 sec.
40.8020712,124.1636729,Eureka,CA,8/12/96,3 minute picture,Light,10 minutes
45.572214,123.95161,Bayview+Jetty,OR,8/12/96,What happen in barview jetty oregon 1996,Disk,2+ hours
42.9026136,78.74457199999999,Cheektowaga,NY,8/12/96,Very large dark grey object  over small community in Western New York frightens non U.F.O believers.,Disk,10-15 Minutes
44.5690305,80.9405602,Owen+Sound+(Canada),ON,8/11/96,Objects began moving in a snake like motion (s'ing) around the stars.I was out on my balcony enjoying a nice cup of coffee with my ,Light,approx 1/2hr
36.72355719999999,120.059879,Kerman,CA,8/10/96,"I was walking back to my room witch was separete from the house.  I stoped walking to look up at the night sky and saw  star, well what",Light,3-4 seconds
34.187044,118.3812562,No.+Hollywood,CA,8/10/96,Ball of Light Buzzes Burbank Airport,Sphere,5 seconds
47.6062095,122.3320708,Seattle,WA,8/10/96,"Orange triangular object, very distant, very slow, binocular brightness.",Triangle,10 minutes
47.1013886,119.9957276,George+(The+Gorge+Amphatheatre),WA,8/10/96,Three soft dim lights passing over head at a fast rate of speed in a vee formation.,Formation,1 minute
40.8614438,83.461592,Wharton,OH,8/10/96,Strange 75'ball of light that move silently at right angleand up and down.,Sphere,15 minutes
51.88,176.6580556,Adak,AK,8/10/96,I was on wheel watch on a 90 ft. fishing Vesel early in the morning near Adak island. At this time Adak was still under navy control &amp;,Other,12 minutes
39.3403942,74.4773735,Ventnor,NJ,8/9/96,i was outside with my friend and his sister and over above us we saw a circle craft hove silenttly and the a sort of door open and ligh,Circle,5 min.
33.073973,106.0186025,Tularosa,NM,8/8/96,Glowing orb of light follows test sled and then shoots off toward viewer.,Sphere,35-45sec
39.9025504,84.6263431,West+Manchester,OH,8/7/96,"Teen saw 8 UFOs near town.Woods got red as Ufo rose out , joined by 5 white specks.  Object broke off object from woods and flew to lef",Oval,15 min.
39.9025504,84.6263431,West+Manchester,OH,8/7/96,"2 bros. saw an object in front of S. windowappear to come from sky and make flashesof light two different times, then shoot away",Unknown,1 min. ea. time
40.2453741,75.6496302,Pottstown,PA,8/4/96,((HOAX??))  Pennsylvania black ops?,Triangle,20 minutes?
40.9083715,90.28484759999999,Knoxville,IL,8/4/96,Taking pictures of hayfields to paint.Object was not seen until film was developed.,Oval,3-5 min
39.9567548,86.01335,Fishers,IN,8/2/96,I was raised and served in the military my first 20 yrs. I was a police officer (Elected Sheriff)for a four year term of office.I was a,Circle,8-10 seconds
39.9567548,86.01335,Fishers,IN,8/2/96,"ADDENDUM #2:  Stationary circurlar object tilts up on it's axis,pulses white inside,disappears into slit opening hole in the sky",Circle,8 -10 seconds
37.3477174,120.609084,Atwater,CA,8/1/96,"I did not see a craft, what I saw was daylight at midnight,  on a cloudless night.",Light,seconds
39.3228841,76.72802770000001,Woodlawn,MD,8/1/96,A news story on 10 o'clock Fox News Baltimore broadcast stated that there had been a current UFO sighting on west side of town,Disk,10 minutes
45.3001178,122.9731565,Newberg,OR,8/1/96,There was a star that moved in all directions.  It would move fast and slow.  It would come to sudden stops and sit for a while and the,Other,30 min. +
44.5434095,68.4194641,Ellsworth,ME,8/1/96,"Silent craft crosses highway, then follows us unknowingly.",Chevron,00:10
41.5581525,73.0514965,Waterbury,CT,8/1/96,HUGE rectangular object over downtown Waterbury in 1996/1997,Rectangle,5-10 minutes
42.887535,77.2816984,Canandaigua,NY,8/1/96,"large triangular object, black with small red and white lights. Hovered for 10 minutes at 500ft elevation",Triangle,15min
44.7443293,92.8513706,Hastings,MN,8/1/96,Super bright white blinding light.,Flash,3 seconds
33.9924186,96.39712329999999,Durant,OK,8/1/96,Large low flying triangle in oklahoma,Triangle,2-3 minutes
38.7014389,90.14871989999999,Granite+City,IL,8/1/96,"We saw somthing in the sky that resembled sky writer plane @ first, but then turned into a pulsating ball.",Sphere,20 minutes
38.2544472,104.6091409,Pueblo,CO,8/1/96,Black Triangle in sky about 35 mi south of NORAD,Triangle,3 min
37.3382082,121.8863286,San+Jose,CA,8/1/96,A large boiling fireball 3/4 the size of the full moon. flew by so fast that i was the only oneto see it 2 others present I thought tha,Fireball,15-30 sec
40.5649781,111.8389726,Sandy,UT,8/1/96,"Bright blue light against a blue cloudless sky, at high noon.",Light,5 minutes
36.9033581,104.4391532,Raton,NM,8/1/96,Green light that turn curves of mountains.,Light,15-20
39.0911161,94.41550679999999,Independence,MO,8/1/96,"MISSOURI INVESTIGATORS GROUP Report:  Triangle in Independence, Mo.",Triangle,unknown
43.7315479,79.7624177,Brampton+(Canada),ON,8/1/96,Bright shpere turning counter clockwise viewed north of brampton,Fireball,2 min
45.48706199999999,122.8037102,Beaverton,OR,8/1/96,Craft above power Lines,Disk,90 Sec
40.9293759,73.1025502,East+Setauket,NY,7/31/96,"Football shaped, pink luminous with vapor trail.",Other,2 seconds
34.769536,92.2670941,North+Little+Rock,AR,7/30/96,Clearly observed a triangular craft outfitted with three bright lights.  Object made no sound and floated perfectly still for around fo,Triangle,4 minutes
30.7541808,86.5727995,Crestview,FL,7/30/96,"White, triangular object (shaped like a long, narrow paper airplane) observed moving silently in broad daylight.",Triangle,1.5 minutes
37.0057816,121.5682751,Gilroy,CA,7/30/96,Gilroy California,Light,8minutes approx
45.6855144,92.9654903,Rush+City,MN,7/25/96,"Possible prior sighting similar to 16 Feb 2004 Amityville, NY",Unknown,15-20 min
48.8638091,117.3724667,Metalline+Falls,WA,7/24/96,Brilliant fireball shooting across the sky that crashed behind a mountain illuminating the entire valley.,Fireball,8 seconds
47.6062095,122.3320708,Seattle,WA,7/24/96,Boomerang shaped metalic craft over the pugit sound,Rectangle,45 minutes
36.5859718,79.39502279999999,Danville,VA,7/23/96,"as the ufo took off at very high speed ,the jets coming in 10 to 15 minutes later meant it was definately something.",Disk,4 to 5 minutes
25.790654,80.1300455,Miami+Beach,FL,7/23/96,A friend of mine and me were camping on my roof we saw a green triangle shape thing  zip by. This was no meteor because it slowed down ,Triangle,5seconds
45.5016889,73.567256,Montreal+(Canada),PQ,7/21/96,We were driving along through montreal when I was looking up into the sky and saw a circle of colored lights with a green star shape in,Formation,30-50 seconds
45.4215296,75.69719309999999,Ottawa+(Canada),ON,7/21/96,I was looking out at the sky from inside my condo. when I saw a large weird bright shape moving.,Rectangle,3 Mins
46.0878165,64.7782313,Moncton+(Canada),NB,7/20/96,"It flow over the woods north of my house, slowly came towards the house, that night there was a meteor shower , thats what I thought it",Rectangle,60 seconds
29.5552311,95.11520879999999,Clear+Lake,TX,7/20/96,"It shorted out the lights as it flew over , without making a sound!",Teardrop,5 minutes or so
40.6862075,75.4968501,Northampton,PA,7/19/96,I stepped outside one evening to smoke a cig. I always look up and watch the stars. It was a very clear night. As a looked around I saw,Disk,15 min
39.1856597,78.1633341,Winchester,VA,7/18/96,My brother and I saw a hovering cone and we watched it until it zoomed away.,Cone,5 minuts
42.1610086,83.90255379999999,Saline/Bridgewater,MI,7/17/96,"Bright light in sky transforms into barbell-shaped craft, descends and rotates silently overhead.",Other,fifteen minutes
36.637714,120.6251747,I-5+(Firebaugh+Exit),CA,7/17/96,Three Shiny Diamond shaped lights in triangle formation.,Diamond,15 min
53.5400757,113.4913796,Alberta+(rural)+(Canada),AB,7/16/96,Low flying craft with VERY unusual strobe pattern.,Unknown,40 Seconds
40.9276614,100.1606978,Gothenburg,NE,7/15/96,red flashing light crossing clear night sky west to east  horizon to horizon at a speed 5 to 10 times faster than any jet i ever saw.,Circle,30 seconds
44.811349,91.4984941,Eau+Claire,WI,7/15/96,Aircraft of unknown shape with four orange non-blinking lights silently flew towards the west around 600 or 700 ft. above my neighbor a,Unknown,8 seconds
32.2217429,110.926479,Tucson,AZ,7/15/96,"Mother Ship/ Appeared as a Star.  ((NUFORC Note:  Possible star sighting, we believe, given the duration of the event.  PD))",Other,Hours
42.4999942,96.40030689999999,Sioux+City,IA,7/15/96,Triangular shapes that only I could see.,Triangle,10 seconds
39.9259463,75.1196199,Camden,NJ,7/15/96,3 sets of 4 orange circles or discs traversing the sky from west to east,Circle,20secs.x3times
35.2219971,101.8312969,Amarillo,TX,7/15/96,"Knowledge for a perpetual energy device,and how to create a gravity wave for anti-gravity perpulsion. FREE- ASK",Other,2-3hours
41.20981769999999,74.6076614,Sussex+City,NJ,7/15/96,"OBJECT SEEN WEEK OF PAN AM 800 DISASTER,LESS THAN 1OO AIR MILES FROM SITE.VIDIO TAKEN,WILL FOWARD.I KNOW OF NO OTHER CRAFT THAT CAN FLI",Other,1 min
32.8995325,105.960265,Alamogordo,NM,7/15/96,I opened the window to tell my dog to be quiet then about 2 sec later a yellow glowing craft about 70 feet away from me how high it was,Changing,10min
41.20981769999999,74.6076614,Sussex,NJ,7/15/96,triangular shaped object seen on separate occasions in different states,Triangle,5 minutes
37.5019888,92.82100969999999,Conway,MO,7/15/96,An olive green object shaped like the vertical tail fin of an aircraft passed over I-44 just a few feet above the ground,Other,2 seconds
46.9965144,120.5478474,Ellensburg,WA,7/15/96,"Clear sunny day, 3 adults saw small silver sphere that hovered for about 1 minute directly overhead. It then suddenly took off to the e",Rectangle,3 mins.
42.2917069,85.5872286,Kalamazoo,MI,7/15/96,"In the summer of 1996 my friend and I saw a bright object traveling across the sky very quickly making unusually strange movements, str",Other,1 minute
39.733936,90.2290098,Jacksonville,IL,7/15/96,A mysterious blue light filled my room and I felt a friendly presence.,Light,5 Minutes
40.8893895,111.880771,Bountiful,UT,7/15/96,Witnessed A Black Triangle Craft Over Utah,Triangle,20 seconds
45.3379567,71.5673956,Sawerville+(Canada),QC,7/15/96,Small dim light in Southern Quebec connects all the dots of Big Dipper after we spoke about Dipper,Light,5 minutes
30.3328039,87.1497698,Pensacola+Beach,FL,7/14/96,Blue Angles interupted by UFO/F-16 Crashes in area same Day,Sphere,1 minutes
40.550042,91.3848749,Navoo,IL,7/12/96,Group of four or five High-Alt. lights.  Very fast and seemingly random and craftily steered slowing and speeding flights.,Formation,10 seconds
42.5847425,87.82118539999999,Kenosha,WI,7/11/96,"It was a warm July evening.  I was down by Southport Beach, on the shorelines of Lake Michigan.  It's a city beach in Kenosha, so i was",Other,2-2.5 sec.'s
34.2073196,84.14019259999999,Cumming,GA,7/10/96,It was holding me down wth enormous strength i had t roll wildly to break loose and it dissappeared!,Rectangle,35-45 seconds
34.7310352,95.76412859999999,IndIan+Nation+Turnpike,OK,7/10/96,green fire in the sky  around  500yd up moveing north to south  arond 50 ft top to boutom no sound,Fireball,15mn
38.6270025,90.19940419999999,St.+Louis,MO,7/9/96,The object looked like a triangular shaped solid welder's arc.,Triangle,30 minutes
47.67925899999999,122.8982142,Brinnon,WA,7/6/96,"I saw a glowing object of 10ft. high and 60ft. long traveling in a straight line, making no sound.",Oval,12-15 sec.
40.4778612,77.1305373,Newport,PA,7/5/96,Sighted two orange rectangles above treetops while driving on a county road.,Unknown,2 min.
39.9259463,75.1196199,Camden,NJ,7/5/96,strange orange circles or discs passing overhead,Oval,2min. each time
42.1014831,72.589811,Springfield,MA,7/5/96,"the object floted inplace, then circled the clouds at an increasing in speed. then speed off. It was red in color.",Circle,30-40 sec
37.9723339,81.1487135,Oak+Hill,WV,7/5/96,Burning glowing sphere(sparks),Fireball,about a month
44.7630567,85.62063169999999,Traverse+City,MI,7/4/96,I saw approx. 20 small pin points of light in a triangular formation. (almost like a group of birds flying south) The points of light r,Other,30sec
31.4637723,100.4370375,San+Angelo,TX,7/4/96,"Star shape from south to Northeast, no sound, approx 500 to 100 ft. high.",Light,5 sec
34.2257255,77.9447102,Wilmington,NC,7/4/96,My wife and I were stargazing on a beautiful clear night when we spotted a red triangle flying,Triangle,1 minute
41.4020382,74.3243191,Goshen,NY,7/4/96,While outside with my family on July 4th...I went to my room to get a CD...then I seen this object just floating in the sky about a mil,Light,N/A
36.0625795,94.1574263,Fayetteville,AR,7/4/96," A short but sure encounter with three alien craft and tall, hairy beings, with keen sensory peception.",Changing,88 minutes
40.4778838,74.290702,South+Amboy,NJ,7/4/96,It was a ball of white light that changed to triangular red and blue lights and then again to a ball of red light.,Triangle,2 minutes
46.91806889999999,104.0043728,Beach,ND,7/3/96,"30' x 40' grey saucer w/ dome/windows above, glowing orb below, 6 legs, 3 antenna approaches, hovers over truck.  Very credible.",Disk,N/A
45.0125955,115.3172844,Salmon+River,ID,7/3/96,"Red glowing ball of light, chased by black helicopters over the Salmon River",Light,6 mins
47.8608705,123.9348027,Hoh+Rain+Forest,WA,7/3/96,"saw a slow, low flying silver disk around 10 AM .",Disk,7-10 seconds
47.2356536,122.5504041,University+Place,WA,7/3/96,"It was the fourth of july, actually the evening before.  I was driving down 67th avenue, going towards lakewood, when I saw this big fi",Fireball,30 seconds
41.8995001,79.8453298,Union+City,PA,7/3/96,we ar more primitive than we think!,Other,5 min.
42.91694620000001,89.21789369999999,Stoughton,WI,7/3/96,I was spending a lazy day on the shore of Lake Kegonsa when I noticed a bright light in the Eastern sky. It stood out to me because it,Light,10 hours
43.1005686,83.7411631,Mt.+Morris+Township,MI,7/2/96,Saucer craft seen hovering 300ft above ground for about 5 mins.,Disk,5 min
46.6020711,120.5058987,Yakima,WA,7/1/96,Man and childern view silver/blue reflective obj. in W sky traveling N very quickly. Appears to not be plane.,N/A,20 min
43.9140162,69.9669961,Brunswick,ME,7/1/96,"What I saw was a bright flash of gold light that appeared in one part of the sky, it died down and apeared in adifferent part of the sk",Light,9 seconds
47.8553772,121.9709579,Monroe,WA,7/1/96,"Enough time has lapsed that my apprehension has waned. This was observed by xxxxxxxxxxxxxxxxxxxxxxxxxxxx, on date stated. I was at 'Ced",Triangle,00:01:00
44.96228199999999,76.983946,Plevna+(Canada),ON,7/1/96,Wittnessed Triangular Shaped Craft  half the size of a soccer field  fly 50'-75' above tree tops,Triangle,2-4 minutes
32.0509895,84.7990901,Lumpkin,GA,7/1/96,"Stewart County sighting in 1996, New Story Never Heard Before Til Now. &quot; I was as close as 30 yards away&quot;",Disk,2 minutes
45.3473925,80.03478299999999,Parry+Sound+(N+of)(Canada),ON,7/1/96,"I saw 2 object, the exact same appearance/size as a star circle each other.",Circle,5 secs
29.7857853,95.8243956,Katy,TX,7/1/96,Saw 3 diamond shaped crafts.  Two small flanking a huge mother ship.  Each had 3 lights each. Mother had red/green lights around belt.,Diamond,30 mins
34.5136823,102.8829977,Bovina,TX,7/1/96,Blue &amp; White Lights,Unknown,2 minutes
44.6365107,123.1059282,Albany,OR,7/1/96,"In the early evening, I saw a white, egg-shaped object making its way across the sky.",Egg,5 minutes
33.8169599,118.0372852,Cypress,CA,7/1/96,WHITE CIRCULAR LIGHTS,Oval,2 HOURS
34.0522342,118.2436849,Los+Angeles,CA,7/1/96,"Bright &quot;Pearl&quot; cluster seen looking northwest from Bev.Hills,W.Hollywood area. Observedfor more than half hour. Objects spun and lighte",Formation,30-45 min.
43.4261809,73.71234079999999,Lake+George,NY,7/1/96,Small points of light moving randomly,Light,1 or more hours
30.1689603,85.7942453,Panama+City+Beach+(behind+Club+LaVela),FL,7/1/96,Its was a crisp clear night during the summer of 1996 and my roommate and I were sitting on the beach behind some local clubs.We had go,Light,about 1 minute
41.8781136,87.6297982,Chicago,IL,6/30/96,"Witness reports UFO's over city all week.  FAA indicates multiple reports.  Closest appeared oval shaped, metallic w/ strobe.",N/A,4 hours
39.5534303,77.99499930000002,Hedgesville,WV,6/30/96,disk shape object with beam,Disk,10 mins
43.9275435,69.9759459,Topsham,ME,6/30/96,"1996 encounter with bright lights on country road in Topsham, Maine.",Light,2 hours
43.0948033,71.7306313,Weare,NH,6/30/96,Bright White Ball that seemed to teleport instead of fly.,Light,3 minutes
40.3133697,88.9736901,Heyworth,IL,6/30/96,"Original case, I think. I want answers...",Circle,2 minutes
39.8023363,75.0640602,Blackwood,NJ,6/30/96,Comet sighting PLUS!,Disk,7 secs.
38.5815719,121.4943996,Sacramento,CA,6/30/96,pulsating light over my neighbors yard about 5 houses away and 30 to 40 feet in the air.,Light,5 minutes
34.483901,114.3224548,Lake+Havasu+City,AZ,6/30/96,"Two large mother ships first witnessed merging together, and then observed silently passing over the northern edge of town.",Other,10 minutes
40.7607793,111.8910474,Salt+Lake+City,UT,6/30/96,wired hypnsis wheel lights on craft,Circle,2-3 mins
31.6035129,94.6554874,Nacagdoches,TX,6/29/96,"Blinking white, green and orange (rotating?) lights w/ orange trail moved across sky.  Witness is mil. pilot - says not standard a/c.",Light,N/A
41.8137116,71.3700545,East+Providence,RI,6/29/96,Very bright white obj.  changes shape from circle to oval.  1/3 apparent diam of moon at closest approach.  Blinking lights at top.,Light,45 min
41.8137116,71.3700545,East+Providence,RI,6/29/96,A large white pulsating light,light,1 hour and longer
42.537811,83.4810481,Walled+Lake,MI,6/28/96,"Blinking light moved W to E.  Faded out, came back, dropped &quot;real quick&quot; when plane approached, then went back up behind it.",Light,5-7 min
39.2903848,76.6121893,Baltimore,MD,6/28/96,Man views &quot;huge&quot; cigar shaped craft thru binoculars.  Obj wavers revealing more saucer-like structure. Lit by moon.  No lights.,N/A,1 minute
33.4255104,111.9400054,Tempe,AZ,6/28/96,Huge pearl-like object over South Mountain,Changing,30 minutes
41.2882208,72.5288034,Clinton,CT,6/27/96,"Witness saw 4 white objects.  2 were zigzagging back and forth, in a N to S and S to N direction.  Other 2 intersected each other.",N/A,N/A
45.3945087,75.84396029999999,Aylmer+(Canada),PQ,6/27/96,Three lights flying in a perfect triange formation. There was absolutely no sound.,Formation,15 seconds
38.55810719999999,91.01208779999999,Washington,MO,6/25/96,"Triangle/Diamond with white lights, hovering and rotating around axis",Diamond,3-4 minutes
47.6739881,122.121512,Redmond,WA,6/24/96,"2 craft seen.  1st like plane w/  5 colored lights, strobe on 2nd.  1st craft ascends till it seems as a star.  2nd cont's across sky.",N/A,N/A
39.7294319,104.8319195,Aurora,CO,6/24/96,"Obj. hovered 100 ft above car.  Red, blue lights on corners.  Changed shape from cube to pyramid to triangle.  Landed 800 ft away.",changed,1 hour
33.8839926,84.51437609999999,Smryna,GA,6/24/96,"silver, blimp-shaped object seen over downtown Atlanta",Oval,5 minutes
39.9525839,75.1652215,Philadelphia,PA,6/24/96,OVAL  GREEN LIGHT,Light,N/A
34.3541659,119.0592705,Santa+Paula,CA,6/23/96,"Couple in jacuzzi witness approx. 8x bright objs.in night sky.  Two of objs. flare up, the group begins moving, then all disappear.",N/A,5 min.
45.8230494,121.8522443,Cascade+Mtns.,WA,6/23/96,Man calls to report that son had witnessed a blue-green orb hit side of mountain.  No sound.  Follow up visit reveals no damage.,N/A,N/A
34.3348045,110.9438736,Payson+(Woods+Canyon+Lake),AZ,6/23/96,"How can there be a bright light and no body has seen it, and why did I fall back to sleep so quickly.",Light,10 seconds
32.912624,96.63888329999999,Garland,TX,6/22/96,"4x adults, children, witness 5x bizarre objs. pass overhead at high speed,separated by 40 sec. intervals. 3x pulsing lights on bottom.",N/A,4 min.
38.9939872,80.2320276,Buckhannon,WV,6/22/96,A rather large triangular shaped disk was noticed about 800 yards away hovering at the level of tree tops.  Me and a friend began to ex,Triangle,2minutes
33.8302961,116.5452921,Palm+Springs,CA,6/21/96,"Couple witness huge, oval-shaped bright light.  Obj. was partially transparent; lights on inside.  Obj. released smaller red lights!",N/A,N/A
39.1856597,78.1633341,Winchester,VA,6/21/96,"I saw a cone with a flashing light at the top, &quot;windows&quot; in the center, and three lights in triangle formation on the base.",Cone,1 minute.
26.6672935,81.8800861,Fort+Myers+(north),FL,6/20/96,Point of light (&quot; star&quot;) moves incredibly fast across sky.  Witness does not believe it was shooting star due to speed and trajectory.,Light,5-6 sec
54.3150367,130.3208187,Prince+Rupert+(Canada),BC,6/20/96,"Man's dog begins to bark; man sees &quot;parachute&quot; descending.  Suddenly, object flashes bright light several times, then just disappears.",N/A,N/A
54.3150367,130.3208187,Prince+Rupert+(Canada),BC,6/20/96,Man takes 4 photos and video of &quot;parachute&quot; shaped object receding slowly to NW.,N/A,5 min
47.48287759999999,122.2170661,Renton,WA,6/20/96,Woman calls to report a large flash in the night sky.  (No follow up rept.),N/A,N/A
37.0474855,112.5263145,Kanab,UT,6/20/96,i was at a trailer park by the edge of the K hill call the K hill because it has a K on it for kanab. I was getting my 7 month old son ,Fireball,3 minutes
49.1044302,122.801094,Surrey+(Canada),BC,6/20/96,Strange Planes That Changed Shape And Appear To Be Interdimensional,Other,30 minutes plus
54.3150367,130.3208187,Prince+Rupert+(Canada),BC,6/20/96,I'am submitting two UFO reports from two different places that have the same shape and colour as my ufo that i took on June 20th.1996.,Other,3-min.
46.52185799999999,84.3460896,Sault+Ste.+Marie+(Canada),ON,6/20/96,"The three lighted object hovered over us for a while, then glided across the night sky quietly until we could not see it anymore.",Triangle,10-15 seconds
47.5650067,122.6269768,Bremerton,WA,6/19/96,Young man repts. a large green ball of light hitting the Olympic Mtns. to the W.  Immense flash after obj. disappeared behind horizon.,N/A,N/A
47.5650067,122.6269768,Bremerton,WA,6/19/96,"Man calls to rept. having just seen a &quot;green glowing orb shoot across the sky, S to N.&quot;  Apparently, hit mtns., then a huge flash.",N/A,N/A
47.6062095,122.3320708,Seattle,WA,6/19/96,"In response to news article, young man repts. blue-green fireball in W sky.  Very bright.  Suddenly &quot;disintegrated&quot; near horizon.",N/A,N/A
27.950575,82.4571776,Tampa,FL,6/19/96,"Disc shaped craft in downtwon Tampa, FL in 1996",Disk,4 minutes
40.5852602,105.084423,Fort+Collins,CO,6/19/96,I saw the same tri-angular craft the guy in Masonville Colorado saw 6/19/1996.,Triangle,two minutes
40.449256,105.002428,Fort+Collins/Loveland,CO,6/19/96,The object was of technology that is general knowledge.,Triangle,10 minutes
48.4284207,123.3656444,Victoria+(Canada),BC,6/18/96,"Hot june night,out watching stars.I noticed what looked like two lights moving like they were at the end of a birds wings(bobbing up an",Other,5 miutes
32.715738,117.1610838,San+Diego,CA,6/18/96,A brilliant white perfect circle changes to a circle within a circle and then becomes a distant dot in the sky.,Circle,70 seconds
32.715738,117.1610838,San+Diego,CA,6/17/96,"Man witnesses a tiny, very bright obj. moving across sky.  Obj. gains alt., brightens, remains motionless 20 min. Suddenly disappears.",Light,20 min.
49.171634,122.910981,North+Delta+(Canada),BC,6/17/96,Man sees a bright &quot;landing light&quot; approaching from behind trees.  Obj. accelerates phenomenally and is gone in 10 seconds. No sound.,Light,10 sec.
41.4942021,87.52170679999999,Dyer,IN,6/17/96,a black shaped object almost triangular shaped but slightly diamond shaped hovering above a tree by a park.,Diamond,30 seconds
47.1301417,119.2780771,Moses+Lake,WA,6/16/96,"Young man sees 2x &quot;octagons with cuts in sides&quot; pass overhead to the W.  Unusual type of flight--very smooth, gliding motion.",N/A,1 minute
43.6187102,116.2146068,Boise,ID,6/15/96,"Two boys skateboarding &amp; photographing w/ camcorder capture multiple, bizarre objs. on film.  Some cone-shaped, others round.",N/A,N/A
44.811349,91.4984941,Eau+Claire,WI,6/15/96,"2 boys see rectangle shaped object w/4 orange/yelow lights fly silently over head. no blinking beacon lights, no sound, only a few hund",Rectangle,7 or 8 sec.
38.1915856,120.8291033,Valley+Springs,CA,6/15/96,Triangular shape blocking out stars in front of the Milky Way.,Triangle,15 Seconds
47.6776832,116.7804664,Coeur+d'Alene,ID,6/15/96,3 flying objects that trailed one after the other and flew in loose curves and heading roughly south.,Formation,3 minutes
43.653226,79.3831843,Toronto+(Canada),ON,6/15/96,The bright blue object moved very fast across the sky and it was visible as it went on front of the moon that it was sphere shaped.,Sphere,about 5 seconds
31.07349189999999,81.4114142,Jeckyll+Island,GA,6/15/96,"Saw a white circle traveling in same triangular pattern way up in clear Jeckyll Island, Georgia.",Circle,long time
49.1044302,122.801094,Surrey+(Canada),BC,6/15/96,Five bright lights in the sky flying in various formations for about 20 minutes.,Light,15-20 minutes
38.1341477,121.2722194,Lodi,CA,6/15/96,"UFO (or something) seen in Lodi, CA (1996)",Triangle,10 seconds
35.0526641,78.87835849999999,Fayetteville,NC,6/15/96,"Incredibly fast green light traveling North to South, on several occasions",Other,2 seconds
42.19207189999999,71.761522,Millbury,MA,6/15/96,"We had just finished playing hide and go seek, my neighbors and I.  We were sitting on the driveway in the dark.  We looked up to see a",Light,a minute or two
33.6189101,117.9289469,Newport+Beach,CA,6/15/96,"Unidentified Disc in plain sight, 1000 ft away, for 30 seconds",Disk,30 seconds
40.1566225,88.9837498,Clinton+(US+Highway+51),IL,6/15/96,Daylight causing blue orb in Illinois,Circle,30-45 secs
40.5575986,74.2846022,Woodbridge,NJ,6/15/96,two stars appear to be moving in figure eight formations.,Light,1 hour
42.5234043,76.976631,Dundee,NY,6/15/96,cross shaped ufo hovering over a hill.,Cross,N/A
40.8611755,79.89533279999999,Butler,PA,6/15/96,huge round black object with huge lights spotted in sky over Butler Co. PA,Circle,10 min.bu
45.5230622,122.6764816,Portland,OR,6/15/96,06/15/96 15:00  Portland OR  Chevron  25 minutes  Mid day not moving very high almost downtown flat black chevron,Chevron,25 minutes
45.815115,122.7426009,Ridgefield,WA,6/15/96,extraterrestrial recovered by mother ship,Oval,20 minutes
39.5095556,76.16411970000001,Aberdeen,MD,6/15/96,"6 spaceshuttle technology schemed saucer shaped vehicles seen over Aberdeen,Md in summer of '96.",Disk,5min.
34.1898566,118.451357,Van+Nuys,CA,6/15/96,3 Christmas Tree Cookie Cutters in Triangle Formation,Other,2 minutes
32.4206736,104.2288375,Carlsbad,NM,6/15/96,&quot;Flying saucer&quot; in southeastern New Mexico,Disk,N/A
43.3616211,80.3144276,Cambridge+(Canada),ON,6/15/96,"Silver, oval shaped object rapidly moved up, then south and hovered, then accelarated north and up.",Oval,23 seconds
47.4935403,92.77795990000001,Buhl,MN,6/15/96,Saw flying rectangle that reflected sunrise colors,Rectangle,5 minutes
44.2910915,105.5022205,Gillette,WY,6/15/96,UFO seen while driving the back roads of Wyoming.,Circle,Don't know. Seems like we
47.8106521,122.3773552,Edmonds,WA,6/15/96,"Multiple circular UFO sighting in the sky above Edmonds, WA witnessed by police officer and police explorers.",Formation,10-15 min
34.2542084,110.0298327,Show+Low,AZ,6/15/96,Bright lights and no sound,Oval,5-10 minutes
41.65616560000001,80.4239562,Linesville,PA,6/15/96,"witnessed flashes of light like explosions along the West,East, and SouthWestern horizons",Light,1 hour
35.9131996,79.0558445,Chapel+Hill,NC,6/15/96,"Large disc shaped UFO just over our house, no sound. 3  red lights in a triangle underneath. It was huge.",Circle,5 min
31.0982344,97.342782,Temple,TX,6/13/96,"Diamond-shaped cluster of nonblinking white lights, objects indistinct, low altitude as planes ahd been flying overhead for an hour, si",diamond,4-5 sec
47.6062095,122.3320708,Seattle,WA,6/12/96,Couple see brilliantly bright orb in NNW sky descend vertically.  Obj. had fuzzy edges; descended very fast. &quot;Like burning magnesium.&quot;,N/A,3 sec.
47.6062095,122.3320708,Seattle,WA,6/12/96,"Two young men, unloading van, see 3x pinpoints of light streak directly overhead.  Arranged in a triangular shape.",Light,5 sec.
40.4172871,82.90712300000001,Ohio,OH,6/12/96,"As I was on the phone My children were looking out the back door, then yelled Ma! Ma! look, by the time I got ready to hang up what eve",Triangle,60sec.
40.2414952,75.2837862,Lansdale,PA,6/12/96,Winged Being and Ufo Sighting in PA.,Triangle,30 minutes
49.2827291,123.1207375,Vancouver+(Canada),BC,6/12/96,i was leaving work and was sitting in the front passenger seat of my co workers vehicle when i noticed on the horizon a disk moving abo,Disk,2-5 mins
38.9784453,76.4921829,Annapolis,MD,6/12/96,Saw a perfect round light changing colors. No sound,N/A,10 Min
35.2225668,97.4394777,Norman,OK,6/11/96,"Silver Sphere sighted, Flew off!  A USAF Jet circled the area in search of the object.",Sphere,7 min
47.6062095,122.3320708,Seattle,WA,6/11/96,metalic v - boomerang shaped craft over pugit sound in broad daylight,Other,45 minutes
43.820638,69.8147684,Phippsburg,ME,6/11/96,UFO seen In maine,Disk,15:00 Minutes
33.6177725,114.5882607,Blythe+(north+of),CA,6/10/96,Orange luminescent globe hovering in desert sky then moving at the speed of a meteor.,Sphere,2 min
44.82658439999999,68.6935362,Eddington,ME,6/10/96,"Triangular shaped UFO with blue lights hovering above field off of Route 46 in Eddington, Maine.",Triangle,4 minutes
33.9255713,116.8764103,Banning,CA,6/9/96,"Young woman on Hwy. I-10 watches bright light for 40 miles. Light turns slate gray, or black, changes shape. Suddenly disintegrates!",Light,35 min.
48.0839895,121.968742,Granite+Falls,WA,6/8/96,"WA/MUFON member relays report:  Man repts. witnessing a brightly lighted, white spherical object near town.  (Facts not complete.)",N/A,45 sec.
42.5083482,89.03177649999999,Beloit,WI,6/8/96,Oddly shaped black object hovering high in the daytime sky for about 20 minutes and then dissappearing.,Other,20 minutes
34.5794343,118.1164613,Palmdale,CA,6/7/96,"Woman and husband witness very bright light moving across night sky.  Obj. turns, at which couple sees a solid, strobing light nearby.",N/A,2 min.
34.7204257,80.7709014,Lancaster,SC,6/5/96,"Man, wife, &amp; son witness very bright obj. in night sky near moon.  Obj. reptd. to move &quot;a fist's width across sky.&quot;  (Planet or star?)",N/A,N/A
39.0520169,82.6365536,Jackson,OH,6/5/96,"Family immense, peculiar obj. roar overhead; sound like &quot;C-47.&quot; Green lights down 1 side; accompanied by &quot;white lights.&quot; Low alt.",N/A,2 min.
33.4941704,111.9260519,Scottsdale,AZ,6/4/96,"Man witnesses a large, bright white &quot;ball of light&quot; pass overhead very fast.  Not a satellite, he thought.",N/A,30 sec.
34.2359342,110.0638814,Show+Low+(rural),AZ,6/4/96,"UFO Crash - 1996 - Apache County, AZ",Other,1 hour
39.1434406,77.2013705,Gaithersburg,MD,6/3/96,"Wife, husband, son witness 3 peculiar objs. in sky.  Bright, strobing lights on black, cyl.-shaped craft.  No wings. 1 ascends vert.!",N/A,40 min.
32.293769,84.0610191,Oglethorpe,GA,6/3/96,"Rept. from MUFON:  13x adults witness large craft, &quot;like two turtle shells joined together.&quot;  30x50 feet.  Gray top, beige bottom.",N/A,30 min.
37.9779776,122.0310733,Concord,CA,6/1/96,"Man sees solid, red &quot;satellite&quot; moving E to W.  Obj. suddenly joined by 2nd obj., then 3rd.  All turn south, 2x wink out, 3rd goes N.",Light,10 sec.
41.2429494,81.71305219999999,Hinckley,OH,6/1/96,I saw hovering lights and at a later date actual beings that were not human who may have been following me. 500 Lights On Object0:,Unknown,5 minutes
40.4289892,74.86750669999999,Ringoes,NJ,6/1/96,Green orb; ft. diameter.,N/A,30 seconds
42.88652039999999,79.2508558,Port+Colborne+(Canada),ON,6/1/96,we were looking at star formations planes satelites we lived in the county by lake ont it was a clear night a light came toward us we t,Unknown,1min
41.8535518,71.46766389999999,North+Providence,RI,6/1/96,((HOAX??  Obscene))  A life situation loke no other.,Sphere,16 seconds
35.4167014,97.38407289999999,Midwest+City+(Tinker+AFB),OK,6/1/96,"Triangle Shaped UFO after a weeks storm 1996 in Midwest City, OK.",Triangle,5 min
36.1871005,115.2956118,Summerlin/Las+Vegas,NV,6/1/96,"Large, fast moving, turqoise/yellowish fireball.",Fireball,2-3 secs
40.32674069999999,78.9219698,Johnstown,PA,6/1/96,"bright blue-white oval light at high altitude, moving slowly S-N",Oval,3 sec
29.95106579999999,90.0715323,New+Orleans,LA,6/1/96,The above report was mine and I just wanted you to know my name for your files.,Changing,20 seconds
29.95106579999999,90.0715323,New+Orleans,LA,6/1/96,While a conversation with a friend a large mirror like objesct came out of the south west sky traveling at a moderate rate of speed. Th,Changing,15-20 seconds
41.4475686,71.524667,South+Kingstown,RI,6/1/96,Very very large disc 50 feet off the ground,Disk,10 mins
34.8993297,77.5466342,Richlands,NC,6/1/96,Bright single white light on a summer night sky in eastern N.C.,Light,00:03:00
31.7618778,106.4850217,El+Paso,TX,6/1/96,Light's in Triangle Fromation,Disk,1 hour
44.0520691,123.0867536,Eugene,OR,6/1/96,"Diamond broach shape over Eugene, OR.",Triangle,2 minutes
51.0486151,114.0708459,Calgary+(Canada),AB,6/1/96,hovered and had amazing speed,Sphere,?
29.8832749,97.9413941,San+Marcos,TX,6/1/96,"A Silver object, no sound, moving from North to South. It changed, glowed bright white and then just seemed to vanish.",Oval,15 seconds
36.353885,87.14472599999999,Chapmansboro,TN,6/1/96,"cigar shaped, light tan and dark brown, quiet, hovering, verylow, appeared manufactured.",Cigar,2-3 minutes
47.2570403,122.7584663,Lakebay,WA,6/1/96,"Two contact incidents of Black, Shiny, Triangular Craft that hovered just above tree line emitting low hum.",Triangle,3-5 minutes
40.9256538,73.1409429,Long+Island/Stoney+Brook,NY,6/1/96,witnessed speedy crafts rendezvousing and hovering,Circle,15 minutes
42.8144731,83.7824526,Linden,MI,6/1/96,Disk shaped UFO seen directly above me.,Disk,10 seconds
47.6062095,122.3320708,Seattle,WA,6/1/96,"And lo, the star which they had seen in the west suddenly went before them and came to rest over the place...",Other,1 minute
39.0348317,76.9074739,Beltsville,MD,6/1/96,two small triangular craft very fast and absolutly silent,Triangle,1 sec
43.1919373,89.45567489999999,Waunakee,WI,6/1/96,This was not  a strange light but s a very large easily defined object,Cylinder,4 minutes
39.9181686,75.07128399999999,Collingswood,NJ,6/1/96,Formation of 5-6 circular disks appears connected only edges illuminated orange/red no sound and traveled south to north in 5 seconds,Circle,5-6 seconds
39.1137602,76.7267773,Ft+Mead,ME,6/1/96,"Dark matt black. hooverd over a transformer. I sat still with fear and whatched as it had no sound, but  lights were on each of the cor",Triangle,17min
27.8536365,82.382593,Gibsonton,FL,6/1/96,A 2 person witness to a UFO entering a type of &quot;worm hole&quot;,Light,30 seconds
38.5018575,122.9961102,Guerneville,CA,6/1/96,It occurred late at night when i happened to be gazing at the stars on a clear night.  i was looking all the big stars towards the nort,Diamond,10 min
40.1672068,105.1019275,Longmont,CO,6/1/96,Train like ufo on Airport Rd in Longmont,Other,Several seconds
38.0049214,121.805789,Antioch,CA,5/29/96,"Woman &amp; friend witness &quot;glowing pink, fluorescent, soup-can shaped&quot; object in night sky.  Almost size of full moon.",N/A,5 min.
46.819633,100.5317158,Menoken,ND,5/29/96,"Brightly glowing ball of light motionless, then moving, then motionless.The object moved at various angles around an airport.",Sphere,10 minutes
40.6460613,111.8442712,Mindon,UT,5/28/96,"Young woman sees a &quot;bright green cylinder, illuminated from within&quot; go streaking across the sky.  Disappears behind Hogsback Mtn.",Cylinder,1-2 sec.
39.2903848,76.6121893,Baltimore,MD,5/28/96,"Man, son witness large, cigar-shaped obj. in night sky.  Looked like a &quot;rocket booster w/ a rim on the bottom.&quot; Obj. moved off to S.",N/A,N/A
36.6437843,116.4002815,Amargosa+Valley,NV,5/27/96,AUTHOR'S SUMMARY:  Friend and I witnessed &quot;flare like objects&quot;hovered more than 10 minutes per.Obj's #ing above 20. Strange person(s),Light,1hr
33.9533487,117.3961564,Riverside,CA,5/26/96,"3 adults witness low-flying round obj. change shape, direction of flt., and altitude.  Obj. stopped, dropped sparks, disappeared.",N/A,N/A
38.2081045,91.16042069999999,Sullivan,MO,5/26/96,"Man sees very large obj. in storm clouds during daylight!  Obj. suddenly projects visible beam of light down vert., illuminates ground.",N/A,2 min.
26.640628,81.8723084,Fort+Myers,Fl,5/26/96,Woman driving home from shopping sees &quot;subdued white&quot; disc.  Obj. suddenly ejects multi-colored sparks in a stream.,N/A,10 min.
37.4183929,95.68025809999999,Neodesha,KS,5/26/96,"We thought it was an airplane,  then it zoomed away.",Unknown,2  min.
39.7284944,121.8374777,Chico,CA,5/25/96,"Silent, dark triangle shaped UFO sighting",Triangle,6 Seconds
39.0067768,76.77913649999999,Bowie,MD,5/24/96,"FAA empl., several adults see very bright disc &quot;w/ a dark hole in the middle.&quot;  2x diam. of moon. Obj. hovered, suddenly disappeared.",N/A,3 sec.
41.0997803,80.6495194,Youngstown,OH,5/24/96,"Man sees round, white light moving at &quot;high speed&quot; to the north.  (Telephone suddenly disconnects.)",N/A,3 min.
35.1735404,80.6570304,Mint+Hill,NC,5/24/96,Triangle shape silently hovering just over the trees and houses,Triangle,15 seconds
43.653226,79.3831843,Toronto+(Canada),ON,5/24/96,3 dim trianglular lights on a black trangular base moving slowly low to the ground over Toronto W to E.,Triangle,1-2 minutes
47.45212069999999,117.1307471,Rockford,WA,5/23/96,"Teenage boy and girl witness very bright light overtake their car.  Object hovers over neighbor's house, becomes two bright lights.",N/A,7 min.
38.4192496,82.44515400000002,Huntington,WV,5/22/96,"Man sees very large obj. in sky with &quot;circle of lights&quot; on ventral side.  Obj. suddenly &quot;turned on a dime,&quot; flies in different dir..",N/A,10 min.
27.0997775,82.4542632,Venice,Fl,5/22/96,"Mother, 2 sons driving along wooded road, see huge silver disc.  50-60 yds. in diameter, &quot;pinkish streamers&quot; beside.  Totally silent.",N/A,3 min.
39.4961458,88.1761521,Charleston,IL,5/21/96,"Four youth camping witness big white light, then huge triangular craft w/ 2 red lights on side.  Obj. illuminated them with spotlight.",N/A,2 min.
40.3820132,80.3928423,Burgettstown,PA,5/21/96,"triangular ufo over burgettstown,pa",Triangle,3 minutes
35.9556923,80.0053176,High+Point,NC,5/20/96,I was one the way home one night when a round object passed over head it looked like lava and fire around it,Fireball,2 minutes
40.8567662,74.1284764,Passaic,NJ,5/20/96,Interaction with an unknown silent object which tumbled in a straight line away and up at a shallow angle to where a silver dot was.,Disk,5 minutes
36.3302284,119.2920585,Visalia,CA,5/19/96,"Man &amp; mother witness &quot;point of light&quot; approach an aircraft.  Obj. then rose in sky, moved to horizon in 60 seconds.",N/A,70 sec.
34.4208305,119.6981901,Santa+Barbara,CA,5/19/96,Young woman reports seeing unusual entities on beach.  Creatures were clothed in unusual garments.  (No written rept. received.),N/A,N/A
47.6062095,122.3320708,Seattle,WA,5/18/96,"Group of 6 adults witness a four-cornered obj. in NW sky suddenly erupt into yellow &quot;pieces,&quot; which rose into sky, disappear.",N/A,15 sec.
37.0298687,76.34522179999999,Hampton,VA,5/18/96,"Man sees &quot;shooting star&quot; streak across W to E, turn down toward earth, then streak back W.  Color and size of star.",N/A,20 sec.
49.9007516,120.7379787,Princeton+(Shea+Lake)+(Canada),BC,5/18/96,"We were camping, Victoria Day long weekend. Twinkling red,blue &amp; white lights on the 3rd up, left  side of the Orion Belt(?) Seemed to ",Sphere,unknown
39.7111989,75.4701443,Carneys+Point,NJ,5/18/96,"Brownish black cylinder shaped object flew over my vehicle at 250 feet altitude, lasting approximtely 5 seconds then vanished.",Cylinder,3 to 5 secs
25.7616798,80.1917902,Miami,Fl,5/17/96,"Man sees aqua-green obj., with bright orange nose, streak vertically from the night sky.  Light visible through clouds.  Obj. dims out.",N/A,5 sec.
39.0836712,84.5085536,Covington,KY,5/16/96,"object trails three through city, seen by alot, video taped",Other,25min
33.8816818,118.1170117,Bellflower,CA,5/15/96,"Man sees 2 bright red spheres, &quot;200 yds. apart,&quot; streaking W to E along Hwy 91.  Below 1,000' alt.  Both suddenly climbed sharply.",N/A,10 sec.
30.3321838,81.65565099999999,Jacksonville,FL,5/15/96,"Two fishermen witness very bright obj. pass overhead from SW to NE.  Covered 90 deg. of arc in 30 sec., they thought. (Satellite?)",N/A,30 sec.
37.305047,93.42852719999999,Willard,MO,5/15/96,huge object,Cigar,45 minutes
41.4958665,87.84866129999999,Frankfort,IL,5/15/96,Massive black triangle with red lights at ends hovering,Triangle,N/A
36.1539816,95.99277500000001,Tulsa,OK,5/15/96,Spherical bluish green craft hovering over the water,Sphere,5min
33.4941704,111.9260519,Scottsdale,AZ,5/14/96,"Man sees &quot;very bright white light, with a trail of light,&quot; streak across sky to NW.  Bigger than star, distinctly circular in shape.",N/A,30 sec.
43.16103,77.6109219,Rochester,NY,5/13/96,"Man, brother, see bright yellow light hovering over local woods suddenly descend into woods, turn to orange. Sudden flash of light.",N/A,35 min.
43.9939484,103.7717686,Black+Hills,SD,5/13/96,"Man witnesses bizarre silvery disc, &quot;as long as 2 school buses,&quot; hover, then streak away.  (Phone line goes dead. No other data.)",N/A,35 sec.
38.9779531,122.8394375,Kelseyville,CA,5/12/96,"Group of people witness &quot;pinpoint of light w/ spiderweb of light outside center.&quot;  Obj. ascends, leaves trail behind it, disappears.",N/A,45 min.
36.9741171,122.0307963,Santa+Cruz,CA,5/12/96,Young couple watch very bright light to W over Pacific O.  Had &quot;corona effect&quot;; reflected off water.  Suddenly disappeared. (Planet?),N/A,65 min.
33.4214995,96.5772109,Van+Alstyne,TX,5/12/96,"Close encounter in Texas, missing time.",Disk,3 hour period
35.2031373,85.9210899,Sewanee,TN,5/12/96,"Saw a perfect silver, metalic sphere move with unnatural physics in a crystal clear, afternoon sky.",Sphere,20 min
43.49165139999999,112.0339645,Idaho+Falls,ID,5/12/96,I never have told anyone about this because of the illegal nature of what we were doing when the event occured. Given the anonymous nat,Light,1 minute
39.8917793,75.29963090000001,Norwood,PA,5/11/96,18 Bright fast &quot;Pearl&quot; like UFOs in group between  Philadelphia &amp; Delawre crossed I-95,Formation,2 minutes
47.9789848,122.2020794,Everett,WA,5/10/96,"Man looking N, sees &quot;line of lights, cascading L to R,&quot; streak  to N horizon.  No sound.  No craft visbl.(Very detailed written rept.)",N/A,20 sec.
32.8406946,83.6324022,Macon,GA,5/9/96,FAA radar &amp; tower report radar contact/very bright light in NW sky.  Robbins AFB radar confirms. (Investigation suggests Venus.),N/A,14 min.
32.5631924,97.1416768,Mansfield,TX,5/9/96,"Young couple witness small light, &quot;like star,&quot; pass across sky to E, suddenly disappear.  Obj. moved up, accel., trned L, streaked off.",N/A,90 sec.
33.4483771,112.0740373,Phoenix,AZ,5/9/96,"Woman sees shiny, cigar-shaped obj. hovering in E cloudless sky.  VERY bright; hurt eyes.  Obj. suddenly turned gray, disappeared.",N/A,20 sec.
47.1953976,120.939249,Cle+Elum,WA,5/8/96,"Woman, daughter see &quot;huge piece of machinery w/gold lights, humming sound,&quot; pass overhead.  Obj. &quot;glided&quot; over town. Like &quot;disc.&quot;",N/A,45 sec.
28.3200067,80.6075513,Cocoa+Beach,FL,5/8/96,"Young couple witness cluster of 6 objs. over Cape Kennedy.  Very high alt. Objs. were shiny, suddenly turn dull black.  Move E to W.",N/A,4 min.
33.8883487,118.3089624,Gardena,CA,5/8/96,"Woman sees an &quot;orange-yellow light w/ long tail.&quot;  Light suddenly dims, emits smoke, reappears as amber white light.",N/A,5 min.
43.3665007,124.2178903,Coos+Bay,OR,5/7/96,"Woman hears dogs barking.  Sees an &quot;immense, creamy white light,&quot; blinking irregularly drop into nearby valley. Light continues.",N/A,5 min.
33.4255104,111.9400054,Tempe,AZ,5/7/96,"Man sees two bright lights moving very strangely.  &quot;Too slow to be meteorite, too fast to be satellite.&quot;",N/A,40 sec.
37.5193136,120.4377905,Snelling,CA,5/7/96,"Couple see large disc in N sky &quot;w/ white, yellow, blue lights going in a circle around it.&quot;  Larger than clenched fist at arm's length.",N/A,20 min.
36.7468422,119.7725868,Fresno,CA,5/7/96,Couple witness &quot;huge black thing&quot; over parking lot in downtown Fresno.  Emitted steam or smoke in three directions.  Many lights.,N/A,5 min.
27.950575,82.4571776,Tampa,FL,5/6/96,"Man &amp; son witness two bright objects in SSE sky.  Very bright, with &quot;ring of light&quot; around one of them.  (Possible twinkling stars?)",N/A,2 hrs.
43.6980782,85.4836557,Big+Rapids,MI,5/6/96,UFOs performing geometric patterns in the sky/Fireball/Possible alien encounter.,Light,6 minutes
40.7282239,73.7948516,New+York+City+(Queens),NY,5/6/96,4 light s in formation,Light,2 hours
40.7127837,74.0059413,New+York+City,NY,5/6/96,We were followed by 4 dancing lights for over 70 miles,Light,2 hrs
37.7749295,122.4194155,San+Francisco,CA,5/5/96,"Many repts. of massive &quot;greenish-white&quot; obj. traveling SE to NW, descending.  USCG overheard on scanner to use term, &quot;Quicksilver.&quot;",N/A,3 sec.
37.6304904,122.4110835,San+Bruno,CA,5/5/96,"Man sees peculiar stationary white light.  Green light drops vertically from white light, becomes red, disappears.  1st obj. moves off.",N/A,5 min.
32.3561848,111.0884337,Cortero,AZ,5/5/96,"Woman &amp; son gardening see blindingly bright metallic disc in sky.  Moves from W to E of them, rises vert.  Very visible;  NOT an a/c.",N/A,10 min.
40.8447819,73.8648268,New+York+City+(Bronx),NY,5/5/96,"Me and two friends were in a park hanging out. We looked up and saw a &quot;fireball&quot; streak across the entire sky, which was visible to us,",Fireball,5-7 seconds
43.6954424,116.3540138,Fagle,ID,5/4/96,"Woman &amp; daughter see very brilliant light w/ &quot;little lights spinning out of it.&quot;  1st obj. appears to land, 2nd arrives!  Police.",N/A,20 min.
43.1186374,83.6949583,Morris,MI,5/4/96,Woman sees delta-shaped ship w/ convex bottom &amp; 3 prominant lights over house. Ilumnats entire yard w/ light beam.Frightened by it.,N/A,30 sec.
32.9376218,98.2469919,Graford,TX,5/4/96,"At Possum Kingdom Lake (Graford, Tx) my wife and I spotted several star like objects moving across the sky in strange fashion.  I am po",Light,15 mins
32.0509895,84.7990901,Lumpkin,GA,5/1/96,Saucer object observed close enough to throw stones at in 1996.,Disk,4 minutes
44.52634219999999,109.0565308,Cody,WY,5/1/96,strange lights around Cody area,Other,1 minute
32.268672,112.7387586,Why,AZ,5/1/96,Approx. 10-15 clusters of boomerang shaped lights,light,30 min
44.5645659,123.2620435,Corvalis,OR,5/1/96,triangle formation in a blue haze 5/96 &amp; blinking white lights ne of ashland mountain oregon in june of 1996,Triangle,7-10 minutes
40.8611755,79.89533279999999,Butler,PA,5/1/96,Huge black object with giant lights hovers over Pittsburgh.,Disk,3 minutes
43.16103,77.6109219,Rochester,NY,5/1/96,I saw three triangle shaped craft fly over my neighborhood.,Triangle,10 mins
47.6587802,117.4260466,Spokane,WA,4/30/96,"Woman, several youth, witness 2x very bright lights moving irregularly in N sky.  Changed elevation, seemed to move relative to a/c.",N/A,23 min.
38.5815719,121.4943996,Sacramento,CA,4/29/96,While out in my back yard i was trying out my new camcor-  der to see how it worked.I was shooting the stars and the  moon on a clear n,Other,30 min.
43.49165139999999,112.0339645,Idaho+Falls,ID,4/28/96,"Group of young people witness blue-green light--&quot;ball of fire&quot;--streak down at angle.  4 min. later, hear 2x loud booms.  Dramatic!",N/A,4 sec.
43.49165139999999,112.0339645,Idaho+Falls,ID,4/28/96,"Sheriff's deputy sees EXTREMELY bright blue-green ball of light--&quot;1/2 diameter of moon&quot;--streak down, disappear. Lit 1/4 of NW sky.",N/A,4 sec.
48.1919889,114.3168131,Kalispell,MT,4/28/96,"Four teenagers on hill see immense, very bright ball of greenish-white light streak vert. down, hit ground 20 miles (?) to SW. Silent.",N/A,3 sec.
27.8793198,82.73547620000001,Mile+69,WY,4/28/96,"Women driving truck on Hwy 80 sees obj. &quot;w/ bright nose, no wings&quot; flare up, go behind mountain.",N/A,15 sec.
